{"type":"FeatureCollection","features":[{"type":"Feature","geometry":{"type":"Point","coordinates":[-93.2625398,44.96715032]},"properties":{"id":"377","X":"0","Y":"0","call_taken":"2015-12-30T00:00:00.000Z","location":"E 16th st and Chicago ave","city":"Minneapolis","day":"Day 1"}},{"type":"Feature","geometry":{"type":"Point","coordinates":[-93.28018337,44.98827137]},"properties":{"id":"539","X":"0","Y":"0","call_taken":"2015-12-30T00:00:00.000Z","location":"829 3rd st n","city":"Minneapolis","day":"Day 1"}},{"type":"Feature","geometry":{"type":"Point","coordinates":[-93.26233366,44.99667071]},"properties":{"id":"549","X":"0","Y":"0","call_taken":"2015-12-30T00:00:00.000Z","location":"University Ave and 8th","city":"Minneapolis","day":"Day 1"}},{"type":"Feature","geometry":{"type":"Point","coordinates":[-93.25709534,44.97599792]},"properties":{"id":"732","X":"0","Y":"0","call_taken":"2015-12-30T00:00:00.000Z","location":"822 S 3rd St","city":"Minneapolis","day":"Day 1"}},{"type":"Feature","geometry":{"type":"Point","coordinates":[-93.24013732,45.19729257]},"properties":{"id":"1450","X":"-10382503.42","Y":"5621500.768","call_taken":"2015-12-31T00:00:00.000Z","location":"1203 main st ne","city":"Minneapolis","day":"Day 3"}},{"type":"Feature","geometry":{"type":"Point","coordinates":[-93.23909931,45.1970391]},"properties":{"id":"1000","X":"-10382515.72","Y":"5621536.419","call_taken":"2015-12-30T00:00:00.000Z","location":"1224 main st ne","city":"Minneapolis","day":"Day 2"}},{"type":"Feature","geometry":{"type":"Point","coordinates":[-93.23947884,45.19703507]},"properties":{"id":"811","X":"-10382515.61","Y":"5621500.731","call_taken":"2015-12-30T00:00:00.000Z","location":"1202 main st ne","city":"Minneapolis","day":"Day 2"}},{"type":"Feature","geometry":{"type":"Point","coordinates":[-93.30299377,45.04935837]},"properties":{"id":"1284","X":"0","Y":"0","call_taken":"2015-12-30T00:00:00.000Z","location":"612 Knox ave n","city":"Minneapolis","day":"Day 2"}},{"type":"Feature","geometry":{"type":"Point","coordinates":[-93.18616793,45.04831262]},"properties":{"id":"352","X":"-10382557.94","Y":"5619111.455","call_taken":"2015-12-30T00:00:00.000Z","location":"115 1st street se","city":"Minneapolis","day":"Day 1"}},{"type":"Feature","geometry":{"type":"Point","coordinates":[-93.28727722,45.04604721]},"properties":{"id":"1527","X":"-10384724.53","Y":"5628746.73","call_taken":"2015-12-30T00:00:00.000Z","location":"5006 6th st n","city":"Minneapolis","day":"Day 2"}},{"type":"Feature","geometry":{"type":"Point","coordinates":[-93.28756951,45.04600324]},"properties":{"id":"1531","X":"-10384724.63","Y":"5628757.618","call_taken":"2015-12-30T00:00:00.000Z","location":"5010 6th st n","city":"Minneapolis","day":"Day 2"}},{"type":"Feature","geometry":{"type":"Point","coordinates":[-93.29660034,45.042099]},"properties":{"id":"460","X":"-10385618.35","Y":"5620084.403","call_taken":"2015-12-30T00:00:00.000Z","location":"1200 fremont ave north","city":"Minneapolis","day":"Day 2"}},{"type":"Feature","geometry":{"type":"Point","coordinates":[-93.28708649,45.04113007]},"properties":{"id":"9","X":"-10384662.92","Y":"5627956.443","call_taken":"2015-12-29T00:00:00.000Z","location":"4729 Lyndale Ave n","city":"Minneapolis","day":"Day 1"}},{"type":"Feature","geometry":{"type":"Point","coordinates":[-93.2877655,45.03987122]},"properties":{"id":"7","X":"-10384705.07","Y":"5627712.81","call_taken":"2015-12-29T00:00:00.000Z","location":"4643 lyndale ave n","city":"Minneapolis","day":"Day 1"}},{"type":"Feature","geometry":{"type":"Point","coordinates":[-93.28738779,45.03944322]},"properties":{"id":"10","X":"-10384701.97","Y":"5627734.437","call_taken":"2015-12-29T00:00:00.000Z","location":"4651 lyndale ave. n","city":"Minneapolis","day":"Day 1"}},{"type":"Feature","geometry":{"type":"Point","coordinates":[-93.28761578,45.03764547]},"properties":{"id":"6","X":"-10384731.42","Y":"5627437.899","call_taken":"2015-12-29T00:00:00.000Z","location":"4540 Lyndale Ave n","city":"Minneapolis","day":"Day 1"}},{"type":"Feature","geometry":{"type":"Point","coordinates":[-93.2585907,45.03263855]},"properties":{"id":"1406","X":"-10381424.18","Y":"5626604.757","call_taken":"2015-12-30T00:00:00.000Z","location":"3538 Spain PL","city":"Minneapolis","day":"Day 2"}},{"type":"Feature","geometry":{"type":"Point","coordinates":[-93.29585887,45.03243528]},"properties":{"id":"674","X":"-10385645.25","Y":"5626631.552","call_taken":"2015-12-30T00:00:00.000Z","location":"4251 Fremont Ave n","city":"Minneapolis","day":"Day 1"}},{"type":"Feature","geometry":{"type":"Point","coordinates":[-93.24690247,45.03081131]},"properties":{"id":"5","X":"-10380229.98","Y":"5626288.12","call_taken":"2015-12-29T00:00:00.000Z","location":"3447 Central Ave NE","city":"Minneapolis","day":"Day 1"}},{"type":"Feature","geometry":{"type":"Point","coordinates":[-93.24690247,45.03081131]},"properties":{"id":"283","X":"-10380229.98","Y":"5626288.12","call_taken":"2015-12-29T00:00:00.000Z","location":"3447 Central Ave NE","city":"Minneapolis","day":"Day 1"}},{"type":"Feature","geometry":{"type":"Point","coordinates":[-93.28846741,45.03079224]},"properties":{"id":"42","X":"-10384784.2","Y":"5626310.932","call_taken":"2015-12-29T00:00:00.000Z","location":"4149 lyndale ave n","city":"Minneapolis","day":"Day 1"}},{"type":"Feature","geometry":{"type":"Point","coordinates":[-93.29583809,45.03072537]},"properties":{"id":"689","X":"-10385643.46","Y":"5626293.878","call_taken":"2015-12-30T00:00:00.000Z","location":"4137 fremont ave n","city":"Minneapolis","day":"Day 1"}},{"type":"Feature","geometry":{"type":"Point","coordinates":[-93.2960968,45.03068924]},"properties":{"id":"605","X":"-10385643.33","Y":"5626276.125","call_taken":"2015-12-30T00:00:00.000Z","location":"4131 freemount ave n","city":"Minneapolis","day":"Day 1"}},{"type":"Feature","geometry":{"type":"Point","coordinates":[-93.29537964,45.03068542]},"properties":{"id":"638","X":"0","Y":"0","call_taken":"2015-12-30T00:00:00.000Z","location":"4130 Fremont ave n Minneapolis","city":"Minneapolis","day":"Day 1"}},{"type":"Feature","geometry":{"type":"Point","coordinates":[-93.29663849,45.03041458]},"properties":{"id":"1358","X":"-10385773.03","Y":"5626253.65","call_taken":"2015-12-30T00:00:00.000Z","location":"4122 Girard Ave n","city":"Minneapolis","day":"Day 2"}},{"type":"Feature","geometry":{"type":"Point","coordinates":[-93.28900909,45.02993774]},"properties":{"id":"898","X":"-10384918.5","Y":"5626207.949","call_taken":"2015-12-30T00:00:00.000Z","location":"4116 Aldrich Ave n","city":"Minneapolis","day":"Day 2"}},{"type":"Feature","geometry":{"type":"Point","coordinates":[-93.23713996,45.02767973]},"properties":{"id":"101","X":"-10379109.67","Y":"5625878.811","call_taken":"2015-12-29T00:00:00.000Z","location":"Johnson & 33rd Ave NE","city":"Minneapolis","day":"Day 1"}},{"type":"Feature","geometry":{"type":"Point","coordinates":[-93.29223633,45.02722931]},"properties":{"id":"1143","X":"-10385210.52","Y":"5625725.098","call_taken":"2015-12-31T00:00:00.000Z","location":"3951 colfax ave n","city":"Minneapolis","day":"Day 3"}},{"type":"Feature","geometry":{"type":"Point","coordinates":[-93.28702545,45.02720261]},"properties":{"id":"1148","X":"-10384617.83","Y":"5625718.546","call_taken":"2015-12-31T00:00:00.000Z","location":"3951 6th st n","city":"Minneapolis","day":"Day 3"}},{"type":"Feature","geometry":{"type":"Point","coordinates":[-93.28844452,45.02699661]},"properties":{"id":"407","X":"-10384787.51","Y":"5625693.078","call_taken":"2015-12-30T00:00:00.000Z","location":"3941 LYNDALE AVE N","city":"Minneapolis","day":"Day 1"}},{"type":"Feature","geometry":{"type":"Point","coordinates":[-93.2892707,45.0266967]},"properties":{"id":"842","X":"-10384916.25","Y":"5625727.291","call_taken":"2015-12-30T00:00:00.000Z","location":"3952 Aldrich Ave n","city":"Minneapolis","day":"Day 2"}},{"type":"Feature","geometry":{"type":"Point","coordinates":[-93.28843689,45.02661514]},"properties":{"id":"26","X":"-10384787.43","Y":"5625665.684","call_taken":"2015-12-29T00:00:00.000Z","location":"3931 lyndale ave n","city":"Minneapolis","day":"Day 1"}},{"type":"Feature","geometry":{"type":"Point","coordinates":[-93.28843689,45.02645111]},"properties":{"id":"226","X":"-10384787.36","Y":"5625638.291","call_taken":"2015-12-29T00:00:00.000Z","location":"3921 lyndale ave n","city":"Minneapolis","day":"Day 1"}},{"type":"Feature","geometry":{"type":"Point","coordinates":[-93.28843689,45.02645111]},"properties":{"id":"236","X":"-10384787.36","Y":"5625638.291","call_taken":"2015-12-29T00:00:00.000Z","location":"3921. lyndale ave n","city":"Minneapolis","day":"Day 1"}},{"type":"Feature","geometry":{"type":"Point","coordinates":[-93.296005,45.026271]},"properties":{"id":"686","X":"0","Y":"0","call_taken":"2015-12-30T00:00:00.000Z","location":"3915 Fremont ace n Minneapolis","city":"Minneapolis","day":"Day 1"}},{"type":"Feature","geometry":{"type":"Point","coordinates":[-93.2876358,45.02589035]},"properties":{"id":"40","X":"-10384775.02","Y":"5625583.538","call_taken":"2015-12-29T00:00:00.000Z","location":"3900 Lyndale ave n","city":"Minneapolis","day":"Day 1"}},{"type":"Feature","geometry":{"type":"Point","coordinates":[-93.31381989,45.02534866]},"properties":{"id":"158","X":"-10387611.16","Y":"5625433.608","call_taken":"2015-12-30T00:00:00.000Z","location":"3841 Thomas Ave N","city":"Minneapolis","day":"Day 1"}},{"type":"Feature","geometry":{"type":"Point","coordinates":[-93.31308746,45.02519989]},"properties":{"id":"282","X":"-10387598.86","Y":"5625428.372","call_taken":"2015-12-30T00:00:00.000Z","location":"3838 Thomas Ave N","city":"Minneapolis","day":"Day 1"}},{"type":"Feature","geometry":{"type":"Point","coordinates":[-93.29597473,45.02516556]},"properties":{"id":"728","X":"-10385630.17","Y":"5625416.503","call_taken":"2015-12-30T00:00:00.000Z","location":"3841 fremont ave north","city":"Minneapolis","day":"Day 1"}},{"type":"Feature","geometry":{"type":"Point","coordinates":[-93.24691772,45.02513885]},"properties":{"id":"207","X":"-10380262.63","Y":"5625461.776","call_taken":"2015-12-29T00:00:00.000Z","location":"3137 Central Ave NE","city":"Minneapolis","day":"Day 1"}},{"type":"Feature","geometry":{"type":"Point","coordinates":[-93.31381226,45.02493668]},"properties":{"id":"208","X":"-10387610.42","Y":"5625395.323","call_taken":"2015-12-30T00:00:00.000Z","location":"3827 Thomas Ave N","city":"Minneapolis","day":"Day 1"}},{"type":"Feature","geometry":{"type":"Point","coordinates":[-93.24691772,45.02492523]},"properties":{"id":"214","X":"-10380262.57","Y":"5625488.518","call_taken":"2015-12-29T00:00:00.000Z","location":"3127 Central Ave NE","city":"Minneapolis","day":"Day 1"}},{"type":"Feature","geometry":{"type":"Point","coordinates":[-93.28610992,45.02449799]},"properties":{"id":"849","X":"-10384604.04","Y":"5625347.455","call_taken":"2015-12-30T00:00:00.000Z","location":"3818 6th st n","city":"Minneapolis","day":"Day 2"}},{"type":"Feature","geometry":{"type":"Point","coordinates":[-93.28697205,45.0243988]},"properties":{"id":"1110","X":"-10384616.14","Y":"5625330.949","call_taken":"2015-12-31T00:00:00.000Z","location":"3813 6th st n","city":"Minneapolis","day":"Day 3"}},{"type":"Feature","geometry":{"type":"Point","coordinates":[-93.23690796,45.0240593]},"properties":{"id":"1379","X":"-10379224.72","Y":"5625265.159","call_taken":"2015-12-30T00:00:00.000Z","location":"1516 31st ave ne","city":"Minneapolis","day":"Day 2"}},{"type":"Feature","geometry":{"type":"Point","coordinates":[-93.23690796,45.0240593]},"properties":{"id":"1383","X":"-10379219.24","Y":"5625265.196","call_taken":"2015-12-30T00:00:00.000Z","location":"1520 31st ave ne","city":"Minneapolis","day":"Day 2"}},{"type":"Feature","geometry":{"type":"Point","coordinates":[-93.28842163,45.0235672]},"properties":{"id":"197","X":"-10384784.88","Y":"5625149.315","call_taken":"2015-12-29T00:00:00.000Z","location":"3751 lyndale ave n","city":"Minneapolis","day":"Day 1"}},{"type":"Feature","geometry":{"type":"Point","coordinates":[-93.28895569,45.02335358]},"properties":{"id":"816","X":"-10384913.13","Y":"5625129.108","call_taken":"2015-12-30T00:00:00.000Z","location":"3742 aldrich ave n","city":"Minneapolis","day":"Day 2"}},{"type":"Feature","geometry":{"type":"Point","coordinates":[-93.29595947,45.02329636]},"properties":{"id":"695","X":"-10385627.6","Y":"5625125.429","call_taken":"2015-12-30T00:00:00.000Z","location":"3739 fremont ave north","city":"Minneapolis","day":"Day 1"}},{"type":"Feature","geometry":{"type":"Point","coordinates":[-93.29524231,45.02318573]},"properties":{"id":"588","X":"-10385615.31","Y":"5625114.578","call_taken":"2015-12-30T00:00:00.000Z","location":"3734 Fremont Ave n","city":"Minneapolis","day":"Day 1"}},{"type":"Feature","geometry":{"type":"Point","coordinates":[-93.29681709,45.02317429]},"properties":{"id":"1351","X":"-10385756.24","Y":"5625170.234","call_taken":"2015-12-30T00:00:00.000Z","location":"3754 girard ave n","city":"Minneapolis","day":"Day 2"}},{"type":"Feature","geometry":{"type":"Point","coordinates":[-93.29649353,45.0228653]},"properties":{"id":"1349","X":"-10385755.46","Y":"5625082.176","call_taken":"2015-12-30T00:00:00.000Z","location":"3722 Girard Ave n","city":"Minneapolis","day":"Day 2"}},{"type":"Feature","geometry":{"type":"Point","coordinates":[-93.28778839,45.02231979]},"properties":{"id":"164","X":"-10384771.87","Y":"5625012.385","call_taken":"2015-12-29T00:00:00.000Z","location":"3700 Lyndale Ave n","city":"Minneapolis","day":"Day 1"}},{"type":"Feature","geometry":{"type":"Point","coordinates":[-93.29219055,45.02228546]},"properties":{"id":"1135","X":"-10385205.38","Y":"5625017.053","call_taken":"2015-12-31T00:00:00.000Z","location":"3701 colfax ave n","city":"Minneapolis","day":"Day 3"}},{"type":"Feature","geometry":{"type":"Point","coordinates":[-93.29680234,45.02138928]},"properties":{"id":"1329","X":"-10385753.61","Y":"5624890.176","call_taken":"2015-12-30T00:00:00.000Z","location":"3656 girard ave n","city":"Minneapolis","day":"Day 2"}},{"type":"Feature","geometry":{"type":"Point","coordinates":[-93.29595947,45.02105713]},"properties":{"id":"560","X":"-10385624.54","Y":"5624796.456","call_taken":"2015-12-30T00:00:00.000Z","location":"3623 fremont ave n","city":"Minneapolis","day":"Day 1"}},{"type":"Feature","geometry":{"type":"Point","coordinates":[-93.29719543,45.02095795]},"properties":{"id":"1429","X":"-10385764.74","Y":"5624786.595","call_taken":"2015-12-31T00:00:00.000Z","location":"3619 girard ave n","city":"Minneapolis","day":"Day 3"}},{"type":"Feature","geometry":{"type":"Point","coordinates":[-93.29523468,45.02093887]},"properties":{"id":"571","X":"-10385612.19","Y":"5624780.172","call_taken":"2015-12-30T00:00:00.000Z","location":"3616 Fremont ave n","city":"Minneapolis","day":"Day 1"}},{"type":"Feature","geometry":{"type":"Point","coordinates":[-93.29523468,45.02082443]},"properties":{"id":"557","X":"0","Y":"0","call_taken":"2015-12-30T00:00:00.000Z","location":"3614 Fremont","city":"Minneapolis","day":"Day 1"}},{"type":"Feature","geometry":{"type":"Point","coordinates":[-93.29523468,45.02082443]},"properties":{"id":"573","X":"-10385612.14","Y":"5624774.706","call_taken":"2015-12-30T00:00:00.000Z","location":"3614 Fremont ave n","city":"Minneapolis","day":"Day 1"}},{"type":"Feature","geometry":{"type":"Point","coordinates":[-93.23710978,45.02043977]},"properties":{"id":"118","X":"-10379107.81","Y":"5624740.155","call_taken":"2015-12-29T00:00:00.000Z","location":"Johnson & 29th Ave NE","city":"Minneapolis","day":"Day 1"}},{"type":"Feature","geometry":{"type":"Point","coordinates":[-93.29772949,45.0201416]},"properties":{"id":"1326","X":"-10385890.82","Y":"5624603.198","call_taken":"2015-12-30T00:00:00.000Z","location":"3554 humboldt ave n","city":"Minneapolis","day":"Day 2"}},{"type":"Feature","geometry":{"type":"Point","coordinates":[-93.2845459,45.01984024]},"properties":{"id":"968","X":"-10384430.77","Y":"5624567.909","call_taken":"2015-12-30T00:00:00.000Z","location":"3546 4th st n","city":"Minneapolis","day":"Day 2"}},{"type":"Feature","geometry":{"type":"Point","coordinates":[-93.2964859,45.01969147]},"properties":{"id":"1319","X":"-10385751.9","Y":"5624557.431","call_taken":"2015-12-30T00:00:00.000Z","location":"3538 Girard Ave n","city":"Minneapolis","day":"Day 2"}},{"type":"Feature","geometry":{"type":"Point","coordinates":[-93.30027008,45.01960754]},"properties":{"id":"1528","X":"-10386173.85","Y":"5624551.812","call_taken":"2015-12-30T00:00:00.000Z","location":"3534 James Ave n","city":"Minneapolis","day":"Day 2"}},{"type":"Feature","geometry":{"type":"Point","coordinates":[-93.23674011,45.01947021]},"properties":{"id":"171","X":"-10379102.44","Y":"5624534.46","call_taken":"2015-12-29T00:00:00.000Z","location":"2827 Johnson St NE","city":"Minneapolis","day":"Day 1"}},{"type":"Feature","geometry":{"type":"Point","coordinates":[-93.28491613,45.019328]},"properties":{"id":"997","X":"-10384430.74","Y":"5624562.478","call_taken":"2015-12-30T00:00:00.000Z","location":"3544 4th st n","city":"Minneapolis","day":"Day 2"}},{"type":"Feature","geometry":{"type":"Point","coordinates":[-93.29649353,45.01893616]},"properties":{"id":"1336","X":"-10385751.88","Y":"5624481.271","call_taken":"2015-12-30T00:00:00.000Z","location":"3510 Girard Ave n","city":"Minneapolis","day":"Day 2"}},{"type":"Feature","geometry":{"type":"Point","coordinates":[-93.29566374,45.01888409]},"properties":{"id":"553","X":"-10385624","Y":"5624484.908","call_taken":"2015-12-30T00:00:00.000Z","location":"3513 Fremont ave n","city":"Minneapolis","day":"Day 1"}},{"type":"Feature","geometry":{"type":"Point","coordinates":[-93.2990036,45.01873779]},"properties":{"id":"1369","X":"-10386032.82","Y":"5624457.981","call_taken":"2015-12-30T00:00:00.000Z","location":"3500 irving ave n","city":"Minneapolis","day":"Day 2"}},{"type":"Feature","geometry":{"type":"Point","coordinates":[-93.30735779,45.01810074]},"properties":{"id":"1183","X":"-10386892.49","Y":"5624301.965","call_taken":"2015-12-31T00:00:00.000Z","location":"3445 Oliver  Ave N","city":"Minneapolis","day":"Day 3"}},{"type":"Feature","geometry":{"type":"Point","coordinates":[-93.30735779,45.01774216]},"properties":{"id":"1169","X":"-10386892.45","Y":"5624263.776","call_taken":"2015-12-31T00:00:00.000Z","location":"3431 Oliver Ave n","city":"Minneapolis","day":"Day 3"}},{"type":"Feature","geometry":{"type":"Point","coordinates":[-93.28691864,45.01771164]},"properties":{"id":"1106","X":"-10384612.08","Y":"5624250.962","call_taken":"2015-12-31T00:00:00.000Z","location":"3435 6th St N","city":"Minneapolis","day":"Day 3"}},{"type":"Feature","geometry":{"type":"Point","coordinates":[-93.3095938,45.01770258]},"properties":{"id":"1726","X":"-10387175.42","Y":"5624309.207","call_taken":"2015-12-31T00:00:00.000Z","location":"3447 queen Ave n","city":"Minneapolis","day":"Day 3"}},{"type":"Feature","geometry":{"type":"Point","coordinates":[-93.28839111,45.01761246]},"properties":{"id":"135","X":"-10384781.92","Y":"5624240.292","call_taken":"2015-12-29T00:00:00.000Z","location":"3431 Lyndale Ave n","city":"Minneapolis","day":"Day 1"}},{"type":"Feature","geometry":{"type":"Point","coordinates":[-93.24089639,45.01748867]},"properties":{"id":"1667","X":"0","Y":"0","call_taken":"2015-12-31T00:00:00.000Z","location":"2737 peirce st ne","city":"Minneapolis","day":"Day 3"}},{"type":"Feature","geometry":{"type":"Point","coordinates":[-93.3095938,45.0173559]},"properties":{"id":"1724","X":"-10387175.26","Y":"5624249.201","call_taken":"2015-12-31T00:00:00.000Z","location":"3425. Queen Ave n","city":"Minneapolis","day":"Day 3"}},{"type":"Feature","geometry":{"type":"Point","coordinates":[-93.29396057,45.0173378]},"properties":{"id":"318","X":"-10385470.97","Y":"5624214.794","call_taken":"2015-12-30T00:00:00.000Z","location":"3418 Emerson ave. n","city":"Minneapolis","day":"Day 1"}},{"type":"Feature","geometry":{"type":"Point","coordinates":[-93.28839111,45.01728821]},"properties":{"id":"128","X":"-10384781.92","Y":"5624207.421","call_taken":"2015-12-29T00:00:00.000Z","location":"3419 Lyndale Ave n","city":"Minneapolis","day":"Day 1"}},{"type":"Feature","geometry":{"type":"Point","coordinates":[-93.29679631,45.01713932]},"properties":{"id":"1247","X":"-10385751.68","Y":"5624212.62","call_taken":"2015-12-30T00:00:00.000Z","location":"3416 girard ave n","city":"Minneapolis","day":"Day 2"}},{"type":"Feature","geometry":{"type":"Point","coordinates":[-93.22298862,45.01690798]},"properties":{"id":"90","X":"-10387648.17","Y":"5622748.577","call_taken":"2015-12-29T00:00:00.000Z","location":"2635 27th ave","city":"Minneapolis","day":"Day 1"}},{"type":"Feature","geometry":{"type":"Point","coordinates":[-93.29837479,45.01682483]},"properties":{"id":"1543","X":"-10385913.23","Y":"5624168.856","call_taken":"2015-12-30T00:00:00.000Z","location":"1508 34th ave n","city":"Minneapolis","day":"Day 2"}},{"type":"Feature","geometry":{"type":"Point","coordinates":[-93.27012634,45.01679993]},"properties":{"id":"872","X":"0","Y":"0","call_taken":"2015-12-30T00:00:00.000Z","location":"1220 GRAND ST NE","city":"Minneapolis","day":"Day 2"}},{"type":"Feature","geometry":{"type":"Point","coordinates":[-93.23750305,45.0160675]},"properties":{"id":"114","X":"-10379117.61","Y":"5623992.999","call_taken":"2015-12-29T00:00:00.000Z","location":"2636 Johnson St NE","city":"Minneapolis","day":"Day 1"}},{"type":"Feature","geometry":{"type":"Point","coordinates":[-93.29847717,45.01605225]},"properties":{"id":"1460","X":"-10385904.27","Y":"5623980.955","call_taken":"2015-12-31T00:00:00.000Z","location":"3335 humboldt ave n","city":"Minneapolis","day":"Day 3"}},{"type":"Feature","geometry":{"type":"Point","coordinates":[-93.29522705,45.01597977]},"properties":{"id":"378","X":"0","Y":"0","call_taken":"2015-12-30T00:00:00.000Z","location":"3330 Fremont","city":"Minneapolis","day":"Day 1"}},{"type":"Feature","geometry":{"type":"Point","coordinates":[-93.29901886,45.01593781]},"properties":{"id":"1346","X":"-10386033.64","Y":"5623971.481","call_taken":"2015-12-30T00:00:00.000Z","location":"3330 irving ave n","city":"Minneapolis","day":"Day 2"}},{"type":"Feature","geometry":{"type":"Point","coordinates":[-93.30355835,45.01585388]},"properties":{"id":"1125","X":"-10386468.74","Y":"5623965.065","call_taken":"2015-12-31T00:00:00.000Z","location":"3327 logan Ave  N","city":"Minneapolis","day":"Day 3"}},{"type":"Feature","geometry":{"type":"Point","coordinates":[-93.30355835,45.01573944]},"properties":{"id":"1102","X":"-10386468.75","Y":"5623954.234","call_taken":"2015-12-31T00:00:00.000Z","location":"3323 Logan Ave N","city":"Minneapolis","day":"Day 3"}},{"type":"Feature","geometry":{"type":"Point","coordinates":[-93.29594421,45.01561356]},"properties":{"id":"551","X":"-10385623.75","Y":"5623932.461","call_taken":"2015-12-30T00:00:00.000Z","location":"3319 fremont ave n","city":"Minneapolis","day":"Day 1"}},{"type":"Feature","geometry":{"type":"Point","coordinates":[-93.28807041,45.0154911]},"properties":{"id":"157","X":"-10384781.57","Y":"5623957.904","call_taken":"2015-12-29T00:00:00.000Z","location":"3331 lyndale ave n","city":"Minneapolis","day":"Day 1"}},{"type":"Feature","geometry":{"type":"Point","coordinates":[-93.29930618,45.01517929]},"properties":{"id":"1353","X":"-10386033.81","Y":"5623901.043","call_taken":"2015-12-30T00:00:00.000Z","location":"3304 irving ave n","city":"Minneapolis","day":"Day 2"}},{"type":"Feature","geometry":{"type":"Point","coordinates":[-93.24620056,45.01517105]},"properties":{"id":"1197","X":"-10380176.75","Y":"5623884.356","call_taken":"2015-12-31T00:00:00.000Z","location":"949 26th ave ne","city":"Minneapolis","day":"Day 3"}},{"type":"Feature","geometry":{"type":"Point","coordinates":[-93.26365493,45.01492515]},"properties":{"id":"833","X":"-10382039.17","Y":"5623873.871","call_taken":"2015-12-30T00:00:00.000Z","location":"318 26th ave ne","city":"Minneapolis","day":"Day 2"}},{"type":"Feature","geometry":{"type":"Point","coordinates":[-93.28125763,45.01467896]},"properties":{"id":"365","X":"-10383218.23","Y":"5612728.08","call_taken":"2015-12-30T00:00:00.000Z","location":"3247  2nd Ave N","city":"Minneapolis","day":"Day 1"}},{"type":"Feature","geometry":{"type":"Point","coordinates":[-93.28125763,45.01467896]},"properties":{"id":"564","X":"-10383972.94","Y":"5623717.751","call_taken":"2015-12-30T00:00:00.000Z","location":"3247 2nd St N","city":"Minneapolis","day":"Day 1"}},{"type":"Feature","geometry":{"type":"Point","coordinates":[-93.31241608,45.01457977]},"properties":{"id":"1707","X":"-10387457.7","Y":"5623735.541","call_taken":"2015-12-31T00:00:00.000Z","location":"3245 Sheridan ave n","city":"Minneapolis","day":"Day 3"}},{"type":"Feature","geometry":{"type":"Point","coordinates":[-93.28606415,45.01457214]},"properties":{"id":"938","X":"-10384597.25","Y":"5623711.435","call_taken":"2015-12-30T00:00:00.000Z","location":"3244 6th st n","city":"Minneapolis","day":"Day 2"}},{"type":"Feature","geometry":{"type":"Point","coordinates":[-93.28837585,45.01449966]},"properties":{"id":"220","X":"-10384780.95","Y":"5623706.482","call_taken":"2015-12-29T00:00:00.000Z","location":"3243 lyndale ave north","city":"Minneapolis","day":"Day 1"}},{"type":"Feature","geometry":{"type":"Point","coordinates":[-93.29495239,45.01438904]},"properties":{"id":"530","X":"-10385623.43","Y":"5623779.191","call_taken":"2015-12-30T00:00:00.000Z","location":"3232 Fremont ave n","city":"Minneapolis","day":"Day 1"}},{"type":"Feature","geometry":{"type":"Point","coordinates":[-93.29495239,45.01438904]},"properties":{"id":"584","X":"-10385623.43","Y":"5623779.191","call_taken":"2015-12-30T00:00:00.000Z","location":"3232 Fremont ave n","city":"Minneapolis","day":"Day 1"}},{"type":"Feature","geometry":{"type":"Point","coordinates":[-93.2696991,45.01433945]},"properties":{"id":"385","X":"-10382776.98","Y":"5623784.295","call_taken":"2015-12-30T00:00:00.000Z","location":"2537 Grand St NE","city":"Minneapolis","day":"Day 1"}},{"type":"Feature","geometry":{"type":"Point","coordinates":[-93.28837585,45.01423645]},"properties":{"id":"126","X":"-10384780.89","Y":"5623684.541","call_taken":"2015-12-29T00:00:00.000Z","location":"3235 Lyndale Ave n","city":"Minneapolis","day":"Day 1"}},{"type":"Feature","geometry":{"type":"Point","coordinates":[-93.27006072,45.01422442]},"properties":{"id":"375","X":"-10384345.86","Y":"5614694.704","call_taken":"2015-12-30T00:00:00.000Z","location":"2539 Grand Ave NE","city":"Minneapolis","day":"Day 1"}},{"type":"Feature","geometry":{"type":"Point","coordinates":[-93.26159835,45.014209]},"properties":{"id":"258","X":"-10381835.19","Y":"5623688.922","call_taken":"2015-12-30T00:00:00.000Z","location":"2532 4th St NE","city":"Minneapolis","day":"Day 1"}},{"type":"Feature","geometry":{"type":"Point","coordinates":[-93.29551823,45.01409769]},"properties":{"id":"724","X":"-10385623.28","Y":"5623724.544","call_taken":"2015-12-30T00:00:00.000Z","location":"3252 Fremont Ave n","city":"Minneapolis","day":"Day 1"}},{"type":"Feature","geometry":{"type":"Point","coordinates":[-93.2478714,45.01406479]},"properties":{"id":"230","X":"-10380252.09","Y":"5623668.043","call_taken":"2015-12-29T00:00:00.000Z","location":"2524 Central Ave NE","city":"Minneapolis","day":"Day 1"}},{"type":"Feature","geometry":{"type":"Point","coordinates":[-93.30355072,45.01403427]},"properties":{"id":"1706","X":"-10386468.61","Y":"5623681.146","call_taken":"2015-12-31T00:00:00.000Z","location":"3227 Logan Ave N","city":"Minneapolis","day":"Day 3"}},{"type":"Feature","geometry":{"type":"Point","coordinates":[-93.30069087,45.01388378]},"properties":{"id":"1695","X":"-10386186.53","Y":"5623705.547","call_taken":"2015-12-31T00:00:00.000Z","location":"3237 James  Ave N","city":"Minneapolis","day":"Day 3"}},{"type":"Feature","geometry":{"type":"Point","coordinates":[-93.26611117,45.01386702]},"properties":{"id":"219","X":"-10382339.15","Y":"5623700.795","call_taken":"2015-12-30T00:00:00.000Z","location":"2537 2nd St NE","city":"Minneapolis","day":"Day 1"}},{"type":"Feature","geometry":{"type":"Point","coordinates":[-93.24102648,45.0138469]},"properties":{"id":"1328","X":"-10379542.64","Y":"5623698.142","call_taken":"2015-12-30T00:00:00.000Z","location":"2534 pierce st ne","city":"Minneapolis","day":"Day 2"}},{"type":"Feature","geometry":{"type":"Point","coordinates":[-93.26118469,45.01381302]},"properties":{"id":"253","X":"-10381822.88","Y":"5623651.382","call_taken":"2015-12-30T00:00:00.000Z","location":"2519 4th St NE","city":"Minneapolis","day":"Day 1"}},{"type":"Feature","geometry":{"type":"Point","coordinates":[-93.29394531,45.01379776]},"properties":{"id":"341","X":"-10385483.73","Y":"5623815.851","call_taken":"2015-12-30T00:00:00.000Z","location":"3218 emerson ave n","city":"Minneapolis","day":"Day 1"}},{"type":"Feature","geometry":{"type":"Point","coordinates":[-93.30155182,45.01379395]},"properties":{"id":"1533","X":"-10386315.04","Y":"5623647.081","call_taken":"2015-12-30T00:00:00.000Z","location":"3214 knox ave n","city":"Minneapolis","day":"Day 2"}},{"type":"Feature","geometry":{"type":"Point","coordinates":[-93.28387451,45.01376724]},"properties":{"id":"1662","X":"-10384264.87","Y":"5623625.106","call_taken":"2015-12-31T00:00:00.000Z","location":"3219 3rd st n","city":"Minneapolis","day":"Day 3"}},{"type":"Feature","geometry":{"type":"Point","coordinates":[-93.25095668,45.01373626]},"properties":{"id":"1290","X":"-10380648.6","Y":"5623678.844","call_taken":"2015-12-30T00:00:00.000Z","location":"2528 quincy st ne","city":"Minneapolis","day":"Day 2"}},{"type":"Feature","geometry":{"type":"Point","coordinates":[-93.23623657,45.01370239]},"properties":{"id":"1540","X":"-10378976.32","Y":"5623646.437","call_taken":"2015-12-30T00:00:00.000Z","location":"2514 ulysses st ne","city":"Minneapolis","day":"Day 2"}},{"type":"Feature","geometry":{"type":"Point","coordinates":[-93.28837585,45.01364517]},"properties":{"id":"111","X":"-10384780.73","Y":"5623629.689","call_taken":"2015-12-29T00:00:00.000Z","location":"3215 lyndale ave n","city":"Minneapolis","day":"Day 1"}},{"type":"Feature","geometry":{"type":"Point","coordinates":[-93.24133301,45.01361847]},"properties":{"id":"1337","X":"-10379542.78","Y":"5623637.782","call_taken":"2015-12-30T00:00:00.000Z","location":"2512 Pierce St NE","city":"Minneapolis","day":"Day 2"}},{"type":"Feature","geometry":{"type":"Point","coordinates":[-93.25751495,45.0135231]},"properties":{"id":"43","X":"-10381383.94","Y":"5623619.509","call_taken":"2015-12-29T00:00:00.000Z","location":"2507 7th st","city":"Minneapolis","day":"Day 1"}},{"type":"Feature","geometry":{"type":"Point","coordinates":[-93.3057636,45.01352102]},"properties":{"id":"1168","X":"-10386750.63","Y":"5623640.063","call_taken":"2015-12-31T00:00:00.000Z","location":"3211 Newton Ave N","city":"Minneapolis","day":"Day 3"}},{"type":"Feature","geometry":{"type":"Point","coordinates":[-93.28345031,45.01341574]},"properties":{"id":"1735","X":"-10384265.01","Y":"5623640.025","call_taken":"2015-12-31T00:00:00.000Z","location":"3227 3rd st n","city":"Minneapolis","day":"Day 3"}},{"type":"Feature","geometry":{"type":"Point","coordinates":[-93.28692627,45.01340866]},"properties":{"id":"1078","X":"-10384608.98","Y":"5623601.699","call_taken":"2015-12-31T00:00:00.000Z","location":"3205 6th st n","city":"Minneapolis","day":"Day 3"}},{"type":"Feature","geometry":{"type":"Point","coordinates":[-93.24918509,45.01340032]},"properties":{"id":"1278","X":"-10380450.36","Y":"5623618.54","call_taken":"2015-12-30T00:00:00.000Z","location":"2506 jackson st ne","city":"Minneapolis","day":"Day 2"}},{"type":"Feature","geometry":{"type":"Point","coordinates":[-93.24729614,45.01333192]},"properties":{"id":"155","X":"-10380239.81","Y":"5623619.041","call_taken":"2015-12-29T00:00:00.000Z","location":"2507 Central Ave NE","city":"Minneapolis","day":"Day 1"}},{"type":"Feature","geometry":{"type":"Point","coordinates":[-93.27010967,45.0131797]},"properties":{"id":"367","X":"0","Y":"0","call_taken":"2015-12-30T00:00:00.000Z","location":"NE Grand & Lowry","city":"Minneapolis","day":"Day 1"}},{"type":"Feature","geometry":{"type":"Point","coordinates":[-93.27010967,45.0131797]},"properties":{"id":"370","X":"0","Y":"0","call_taken":"2015-12-30T00:00:00.000Z","location":"Grand & Lowry","city":"Minneapolis","day":"Day 1"}},{"type":"Feature","geometry":{"type":"Point","coordinates":[-93.27010967,45.0131797]},"properties":{"id":"379","X":"0","Y":"0","call_taken":"2015-12-30T00:00:00.000Z","location":"Grand & Lowry","city":"Minneapolis","day":"Day 1"}},{"type":"Feature","geometry":{"type":"Point","coordinates":[-93.24500151,45.01312539]},"properties":{"id":"400","X":"-10379992.69","Y":"5623588.336","call_taken":"2015-12-30T00:00:00.000Z","location":"1026 Lowry Ave NE","city":"Minneapolis","day":"Day 1"}},{"type":"Feature","geometry":{"type":"Point","coordinates":[-93.30988312,45.0130043]},"properties":{"id":"1702","X":"-10387173.39","Y":"5623492.566","call_taken":"2015-12-31T00:00:00.000Z","location":"3121 queen ave n","city":"Minneapolis","day":"Day 3"}},{"type":"Feature","geometry":{"type":"Point","coordinates":[-93.24478912,45.01296234]},"properties":{"id":"546","X":"-10380011.68","Y":"5623588.26","call_taken":"2015-12-30T00:00:00.000Z","location":"1016 Lowry Ave NE","city":"Minneapolis","day":"Day 1"}},{"type":"Feature","geometry":{"type":"Point","coordinates":[-93.31114197,45.01285172]},"properties":{"id":"1658","X":"-10387316.15","Y":"5623489.32","call_taken":"2015-12-31T00:00:00.000Z","location":"3119 Russell ave n","city":"Minneapolis","day":"Day 3"}},{"type":"Feature","geometry":{"type":"Point","coordinates":[-93.24185944,45.01275253]},"properties":{"id":"1648","X":"-10379672.99","Y":"5623465.52","call_taken":"2015-12-31T00:00:00.000Z","location":"2415 Fillmore St NE","city":"Minneapolis","day":"Day 3"}},{"type":"Feature","geometry":{"type":"Point","coordinates":[-93.24693298,45.01255798]},"properties":{"id":"159","X":"-10380241.03","Y":"5623454.777","call_taken":"2015-12-29T00:00:00.000Z","location":"2409 Central Ave NE","city":"Minneapolis","day":"Day 1"}},{"type":"Feature","geometry":{"type":"Point","coordinates":[-93.30184489,45.01252793]},"properties":{"id":"1534","X":"-10386315.14","Y":"5623395.166","call_taken":"2015-12-30T00:00:00.000Z","location":"3124 Knox ave n","city":"Minneapolis","day":"Day 2"}},{"type":"Feature","geometry":{"type":"Point","coordinates":[-93.24384078,45.01244076]},"properties":{"id":"1261","X":"-10379856.79","Y":"5623471.171","call_taken":"2015-12-30T00:00:00.000Z","location":"2418 Taylor St NE","city":"Minneapolis","day":"Day 2"}},{"type":"Feature","geometry":{"type":"Point","coordinates":[-93.29719543,45.01237869]},"properties":{"id":"1085","X":"-10385763.72","Y":"5623457.06","call_taken":"2015-12-31T00:00:00.000Z","location":"3105 girard ave n","city":"Minneapolis","day":"Day 3"}},{"type":"Feature","geometry":{"type":"Point","coordinates":[-93.29341125,45.01234818]},"properties":{"id":"1196","X":"-10385342.44","Y":"5623452.614","call_taken":"2015-12-31T00:00:00.000Z","location":"3101 dupont ave n","city":"Minneapolis","day":"Day 3"}},{"type":"Feature","geometry":{"type":"Point","coordinates":[-93.30154419,45.01229858]},"properties":{"id":"1532","X":"-10386315.75","Y":"5623335.73","call_taken":"2015-12-30T00:00:00.000Z","location":"3102 knox ave n","city":"Minneapolis","day":"Day 2"}},{"type":"Feature","geometry":{"type":"Point","coordinates":[-93.2875824,45.01223755]},"properties":{"id":"116","X":"-10384767.38","Y":"5623407.303","call_taken":"2015-12-29T00:00:00.000Z","location":"3100 Lyndale ave n","city":"Minneapolis","day":"Day 1"}},{"type":"Feature","geometry":{"type":"Point","coordinates":[-93.28331016,45.01217924]},"properties":{"id":"694","X":"-10382353.4","Y":"5624167.435","call_taken":"2015-12-30T00:00:00.000Z","location":"3110 3rd st n","city":"Minneapolis","day":"Day 2"}},{"type":"Feature","geometry":{"type":"Point","coordinates":[-93.29428643,45.01204647]},"properties":{"id":"347","X":"0","Y":"0","call_taken":"2015-12-30T00:00:00.000Z","location":"3076 Emerson Abe n Minneapolis","city":"Minneapolis","day":"Day 1"}},{"type":"Feature","geometry":{"type":"Point","coordinates":[-93.24694824,45.01201248]},"properties":{"id":"252","X":"-10380241.6","Y":"5623310.179","call_taken":"2015-12-29T00:00:00.000Z","location":"2337 Central Ave NE","city":"Minneapolis","day":"Day 1"}},{"type":"Feature","geometry":{"type":"Point","coordinates":[-93.26149642,45.01197539]},"properties":{"id":"260","X":"-10381824.68","Y":"5623419.787","call_taken":"2015-12-30T00:00:00.000Z","location":"2391 4th St NE","city":"Minneapolis","day":"Day 1"}},{"type":"Feature","geometry":{"type":"Point","coordinates":[-93.28517151,45.01180649]},"properties":{"id":"1713","X":"-10384433.58","Y":"5623276.813","call_taken":"2015-12-31T00:00:00.000Z","location":"3033 4th st n","city":"Minneapolis","day":"Day 3"}},{"type":"Feature","geometry":{"type":"Point","coordinates":[-93.29521179,45.01174545]},"properties":{"id":"408","X":"-10385611.52","Y":"5623328.045","call_taken":"2015-12-30T00:00:00.000Z","location":"3010 FREMONT AVE N","city":"Minneapolis","day":"Day 1"}},{"type":"Feature","geometry":{"type":"Point","coordinates":[-93.29521179,45.01174545]},"properties":{"id":"512","X":"-10385611.52","Y":"5623328.045","call_taken":"2015-12-30T00:00:00.000Z","location":"3010 Fremont  Ave N","city":"Minneapolis","day":"Day 1"}},{"type":"Feature","geometry":{"type":"Point","coordinates":[-93.29521179,45.01174545]},"properties":{"id":"523","X":"-10385611.52","Y":"5623328.045","call_taken":"2015-12-30T00:00:00.000Z","location":"3010 Fremont ave n","city":"Minneapolis","day":"Day 1"}},{"type":"Feature","geometry":{"type":"Point","coordinates":[-93.24647522,45.01170349]},"properties":{"id":"107","X":"-10380241.65","Y":"5623294.458","call_taken":"2015-12-29T00:00:00.000Z","location":"2329 Central Ave NE","city":"Minneapolis","day":"Day 1"}},{"type":"Feature","geometry":{"type":"Point","coordinates":[-93.29719543,45.01163483]},"properties":{"id":"1050","X":"-10385763.43","Y":"5623324.731","call_taken":"2015-12-31T00:00:00.000Z","location":"3007 girard ave n","city":"Minneapolis","day":"Day 3"}},{"type":"Feature","geometry":{"type":"Point","coordinates":[-93.26149642,45.01155429]},"properties":{"id":"268","X":"-10381824.81","Y":"5623337.652","call_taken":"2015-12-30T00:00:00.000Z","location":"2341 4th St NE","city":"Minneapolis","day":"Day 1"}},{"type":"Feature","geometry":{"type":"Point","coordinates":[-93.24742354,45.01127198]},"properties":{"id":"1","X":"-10380253.85","Y":"5623290.567","call_taken":"2015-12-29T00:00:00.000Z","location":"2326 Central Ave NE","city":"Minneapolis","day":"Day 1"}},{"type":"Feature","geometry":{"type":"Point","coordinates":[-93.24563384,45.01123779]},"properties":{"id":"1298","X":"-10380055.67","Y":"5623283.907","call_taken":"2015-12-30T00:00:00.000Z","location":"2322 polk st ne","city":"Minneapolis","day":"Day 2"}},{"type":"Feature","geometry":{"type":"Point","coordinates":[-93.25402245,45.01112513]},"properties":{"id":"1160","X":"-10381070.34","Y":"5623272.55","call_taken":"2015-12-31T00:00:00.000Z","location":"669 23rd ave ne","city":"Minneapolis","day":"Day 3"}},{"type":"Feature","geometry":{"type":"Point","coordinates":[-93.29719543,45.01107025]},"properties":{"id":"1048","X":"-10385763.17","Y":"5623159.453","call_taken":"2015-12-31T00:00:00.000Z","location":"2947 girard ave n","city":"Minneapolis","day":"Day 3"}},{"type":"Feature","geometry":{"type":"Point","coordinates":[-93.29691365,45.01045994]},"properties":{"id":"1035","X":"-10385763.19","Y":"5623170.238","call_taken":"2015-12-31T00:00:00.000Z","location":"2951 GIRARD AVE N","city":"Minneapolis","day":"Day 3"}},{"type":"Feature","geometry":{"type":"Point","coordinates":[-93.29395294,45.01041794]},"properties":{"id":"344","X":"-10385470.66","Y":"5623097.213","call_taken":"2015-12-30T00:00:00.000Z","location":"2924 Emerson ave n","city":"Minneapolis","day":"Day 1"}},{"type":"Feature","geometry":{"type":"Point","coordinates":[-93.28836823,45.01027679]},"properties":{"id":"104","X":"-10384778.93","Y":"5623139.443","call_taken":"2015-12-29T00:00:00.000Z","location":"2925 Lyndale ave n","city":"Minneapolis","day":"Day 1"}},{"type":"Feature","geometry":{"type":"Point","coordinates":[-93.23718262,45.01015091]},"properties":{"id":"289","X":"-10379120.21","Y":"5620187.683","call_taken":"2015-12-29T00:00:00.000Z","location":"234 Johnson St NE","city":"Minneapolis","day":"Day 1"}},{"type":"Feature","geometry":{"type":"Point","coordinates":[-93.24729614,45.01011796]},"properties":{"id":"143","X":"-10380242.98","Y":"5623102.99","call_taken":"2015-12-29T00:00:00.000Z","location":"2215 Central Ave NE","city":"Minneapolis","day":"Day 1"}},{"type":"Feature","geometry":{"type":"Point","coordinates":[-93.26953299,45.01010992]},"properties":{"id":"1122","X":"-10382777.25","Y":"5623112.598","call_taken":"2015-12-31T00:00:00.000Z","location":"51 22nd Ave NE","city":"Minneapolis","day":"Day 3"}},{"type":"Feature","geometry":{"type":"Point","coordinates":[-93.26251432,45.01004755]},"properties":{"id":"1124","X":"-10381945.01","Y":"5623102.058","call_taken":"2015-12-31T00:00:00.000Z","location":"353 22nd ave ne","city":"Minneapolis","day":"Day 3"}},{"type":"Feature","geometry":{"type":"Point","coordinates":[-93.28379059,45.01004028]},"properties":{"id":"1612","X":"-10384263.91","Y":"5623048.68","call_taken":"2015-12-31T00:00:00.000Z","location":"2915 3rd st n","city":"Minneapolis","day":"Day 3"}},{"type":"Feature","geometry":{"type":"Point","coordinates":[-93.24060822,45.00999451]},"properties":{"id":"1660","X":"-10379533.06","Y":"5623064.471","call_taken":"2015-12-31T00:00:00.000Z","location":"2211 Pierce St NE","city":"Minneapolis","day":"Day 3"}},{"type":"Feature","geometry":{"type":"Point","coordinates":[-93.24060822,45.00999451]},"properties":{"id":"1663","X":"-10379533.06","Y":"5623064.471","call_taken":"2015-12-31T00:00:00.000Z","location":"2211 Pierce St NE","city":"Minneapolis","day":"Day 3"}},{"type":"Feature","geometry":{"type":"Point","coordinates":[-93.28483634,45.00991143]},"properties":{"id":"928","X":"-10384422.06","Y":"5623075.276","call_taken":"2015-12-30T00:00:00.000Z","location":"2928 4th st. n","city":"Minneapolis","day":"Day 2"}},{"type":"Feature","geometry":{"type":"Point","coordinates":[-93.31113434,45.00988007]},"properties":{"id":"1664","X":"-10387315.22","Y":"5623063.683","call_taken":"2015-12-31T00:00:00.000Z","location":"2907 Russell ave n","city":"Minneapolis","day":"Day 3"}},{"type":"Feature","geometry":{"type":"Point","coordinates":[-93.28496374,45.00987388]},"properties":{"id":"1718","X":"-10384434.29","Y":"5623067.919","call_taken":"2015-12-31T00:00:00.000Z","location":"2925 4th St N","city":"Minneapolis","day":"Day 3"}},{"type":"Feature","geometry":{"type":"Point","coordinates":[-93.29719543,45.00982285]},"properties":{"id":"1040","X":"-10385763","Y":"5623046.202","call_taken":"2015-12-31T00:00:00.000Z","location":"2905 girard ave n","city":"Minneapolis","day":"Day 3"}},{"type":"Feature","geometry":{"type":"Point","coordinates":[-93.28517564,45.00946485]},"properties":{"id":"1039","X":"-10384456.53","Y":"5623011.574","call_taken":"2015-12-31T00:00:00.000Z","location":"415 29th Ave n","city":"Minneapolis","day":"Day 3"}},{"type":"Feature","geometry":{"type":"Point","coordinates":[-93.25857416,45.00934012]},"properties":{"id":"998","X":"-10381497.18","Y":"5622994.212","call_taken":"2015-12-30T00:00:00.000Z","location":"2110 6th ave ne","city":"Minneapolis","day":"Day 2"}},{"type":"Feature","geometry":{"type":"Point","coordinates":[-93.29647827,45.00906754]},"properties":{"id":"1220","X":"-10385750.47","Y":"5622905.455","call_taken":"2015-12-30T00:00:00.000Z","location":"2814 girard ave n","city":"Minneapolis","day":"Day 2"}},{"type":"Feature","geometry":{"type":"Point","coordinates":[-93.29566576,45.00883117]},"properties":{"id":"525","X":"-10385622.17","Y":"5622917.918","call_taken":"2015-12-30T00:00:00.000Z","location":"2825 fremont ave n","city":"Minneapolis","day":"Day 1"}},{"type":"Feature","geometry":{"type":"Point","coordinates":[-93.29553835,45.00880033]},"properties":{"id":"532","X":"-10385609.97","Y":"5622912.543","call_taken":"2015-12-30T00:00:00.000Z","location":"2820 Fremont Ave n","city":"Minneapolis","day":"Day 1"}},{"type":"Feature","geometry":{"type":"Point","coordinates":[-93.29057492,45.00870511]},"properties":{"id":"1682","X":"-10385059.76","Y":"5622896.751","call_taken":"2015-12-31T00:00:00.000Z","location":"2813 Bryant Ave n","city":"Minneapolis","day":"Day 3"}},{"type":"Feature","geometry":{"type":"Point","coordinates":[-93.28347847,45.00866957]},"properties":{"id":"1635","X":"-10384267.58","Y":"5622878.729","call_taken":"2015-12-31T00:00:00.000Z","location":"2817 3rd st n","city":"Minneapolis","day":"Day 3"}},{"type":"Feature","geometry":{"type":"Point","coordinates":[-93.28485109,45.00863202]},"properties":{"id":"911","X":"-10384425.56","Y":"5622869.575","call_taken":"2015-12-30T00:00:00.000Z","location":"2810 4th st n","city":"Minneapolis","day":"Day 2"}},{"type":"Feature","geometry":{"type":"Point","coordinates":[-93.29647827,45.00848389]},"properties":{"id":"1233","X":"-10385750.16","Y":"5622778.95","call_taken":"2015-12-30T00:00:00.000Z","location":"2720 girard ave n","city":"Minneapolis","day":"Day 2"}},{"type":"Feature","geometry":{"type":"Point","coordinates":[-93.24921191,45.00811838]},"properties":{"id":"1299","X":"-10380454.23","Y":"5622786.25","call_taken":"2015-12-30T00:00:00.000Z","location":"1910 Jackson st NE","city":"Minneapolis","day":"Day 2"}},{"type":"Feature","geometry":{"type":"Point","coordinates":[-93.30097961,45.0079422]},"properties":{"id":"1651","X":"-10386184.24","Y":"5622761.081","call_taken":"2015-12-31T00:00:00.000Z","location":"2705 James Ave n","city":"Minneapolis","day":"Day 3"}},{"type":"Feature","geometry":{"type":"Point","coordinates":[-93.2844696,45.00791931]},"properties":{"id":"1068","X":"-10384425.1","Y":"5622696.685","call_taken":"2015-12-31T00:00:00.000Z","location":"2722 4th st n","city":"Minneapolis","day":"Day 3"}},{"type":"Feature","geometry":{"type":"Point","coordinates":[-93.25121307,45.00776672]},"properties":{"id":"1341","X":"-10380652.59","Y":"5622665.483","call_taken":"2015-12-30T00:00:00.000Z","location":"1852 quincy St ne","city":"Minneapolis","day":"Day 2"}},{"type":"Feature","geometry":{"type":"Point","coordinates":[-93.31113434,45.00769424]},"properties":{"id":"1666","X":"-10387313.74","Y":"5622695.657","call_taken":"2015-12-31T00:00:00.000Z","location":"2659 russell ave n","city":"Minneapolis","day":"Day 3"}},{"type":"Feature","geometry":{"type":"Point","coordinates":[-93.30097198,45.00751877]},"properties":{"id":"1675","X":"0","Y":"0","call_taken":"2015-12-31T00:00:00.000Z","location":"2653 james abe n","city":"Minneapolis","day":"Day 3"}},{"type":"Feature","geometry":{"type":"Point","coordinates":[-93.30097198,45.00751877]},"properties":{"id":"1710","X":"-10386184.05","Y":"5622613.744","call_taken":"2015-12-31T00:00:00.000Z","location":"2653 james ave n","city":"Minneapolis","day":"Day 3"}},{"type":"Feature","geometry":{"type":"Point","coordinates":[-93.26590464,45.00751354]},"properties":{"id":"1086","X":"-10382330.38","Y":"5622701.157","call_taken":"2015-12-31T00:00:00.000Z","location":"205 19th ave ne","city":"Minneapolis","day":"Day 3"}},{"type":"Feature","geometry":{"type":"Point","coordinates":[-93.26330423,45.00751354]},"properties":{"id":"1155","X":"-10381996.07","Y":"5622701.702","call_taken":"2015-12-31T00:00:00.000Z","location":"325 19th ave ne","city":"Minneapolis","day":"Day 3"}},{"type":"Feature","geometry":{"type":"Point","coordinates":[-93.26288313,45.00751354]},"properties":{"id":"1734","X":"-10381987.44","Y":"5622701.717","call_taken":"2015-12-31T00:00:00.000Z","location":"329 19th ave ne","city":"Minneapolis","day":"Day 3"}},{"type":"Feature","geometry":{"type":"Point","coordinates":[-93.26579064,45.00751287]},"properties":{"id":"1082","X":"-10382314.02","Y":"5622701.166","call_taken":"2015-12-31T00:00:00.000Z","location":"215 19th ave ne","city":"Minneapolis","day":"Day 3"}},{"type":"Feature","geometry":{"type":"Point","coordinates":[-93.26368511,45.00751086]},"properties":{"id":"1069","X":"-10382049.92","Y":"5622701.565","call_taken":"2015-12-31T00:00:00.000Z","location":"317 19th ave ne","city":"Minneapolis","day":"Day 3"}},{"type":"Feature","geometry":{"type":"Point","coordinates":[-93.26387554,45.00751019]},"properties":{"id":"1732","X":"-10382079.02","Y":"5622701.489","call_taken":"2015-12-31T00:00:00.000Z","location":"313 19th ave ne","city":"Minneapolis","day":"Day 3"}},{"type":"Feature","geometry":{"type":"Point","coordinates":[-93.2641612,45.00750817]},"properties":{"id":"1098","X":"-10382122.67","Y":"5622701.374","call_taken":"2015-12-31T00:00:00.000Z","location":"307 19th ave ne","city":"Minneapolis","day":"Day 3"}},{"type":"Feature","geometry":{"type":"Point","coordinates":[-93.2641612,45.00750817]},"properties":{"id":"1104","X":"-10382122.67","Y":"5622701.374","call_taken":"2015-12-31T00:00:00.000Z","location":"307 19th ave ne","city":"Minneapolis","day":"Day 3"}},{"type":"Feature","geometry":{"type":"Point","coordinates":[-93.26435164,45.00750683]},"properties":{"id":"1728","X":"-10382151.77","Y":"5622701.298","call_taken":"2015-12-31T00:00:00.000Z","location":"303 19th ave ne","city":"Minneapolis","day":"Day 3"}},{"type":"Feature","geometry":{"type":"Point","coordinates":[-93.2833343,45.00747532]},"properties":{"id":"498","X":"-10382353.4","Y":"5624167.355","call_taken":"2015-12-30T00:00:00.000Z","location":"2718 3rd st n","city":"Minneapolis","day":"Day 2"}},{"type":"Feature","geometry":{"type":"Point","coordinates":[-93.24590302,45.00737381]},"properties":{"id":"1259","X":"-10380059.4","Y":"5622645.221","call_taken":"2015-12-30T00:00:00.000Z","location":"1838 polk st ne","city":"Minneapolis","day":"Day 2"}},{"type":"Feature","geometry":{"type":"Point","coordinates":[-93.29394531,45.0071373]},"properties":{"id":"323","X":"-10385469.66","Y":"5622563.059","call_taken":"2015-12-30T00:00:00.000Z","location":"2636 emerson ave n","city":"Minneapolis","day":"Day 1"}},{"type":"Feature","geometry":{"type":"Point","coordinates":[-93.29394531,45.0071373]},"properties":{"id":"359","X":"0","Y":"0","call_taken":"2015-12-30T00:00:00.000Z","location":"2636 Emerson ace n Minneapolis","city":"Minneapolis","day":"Day 1"}},{"type":"Feature","geometry":{"type":"Point","coordinates":[-93.2456734,45.00710919]},"properties":{"id":"1293","X":"-10380059.47","Y":"5622637.345","call_taken":"2015-12-30T00:00:00.000Z","location":"1834 polk st ne","city":"Minneapolis","day":"Day 2"}},{"type":"Feature","geometry":{"type":"Point","coordinates":[-93.2456734,45.00708841]},"properties":{"id":"1359","X":"-10380059.5","Y":"5622633.407","call_taken":"2015-12-30T00:00:00.000Z","location":"1832 polk st ne","city":"Minneapolis","day":"Day 2"}},{"type":"Feature","geometry":{"type":"Point","coordinates":[-93.23368073,45.00707626]},"properties":{"id":"1345","X":"-10378692.44","Y":"5622557.396","call_taken":"2015-12-30T00:00:00.000Z","location":"1832 garfield st ne","city":"Minneapolis","day":"Day 2"}},{"type":"Feature","geometry":{"type":"Point","coordinates":[-93.26278687,45.00703049]},"properties":{"id":"56","X":"-10381994.87","Y":"5622556.513","call_taken":"2015-12-29T00:00:00.000Z","location":"1819 University Ave NE","city":"Minneapolis","day":"Day 1"}},{"type":"Feature","geometry":{"type":"Point","coordinates":[-93.2883606,45.0069809]},"properties":{"id":"102","X":"-10384777.71","Y":"5622553.394","call_taken":"2015-12-29T00:00:00.000Z","location":"2635 Lyndale Ave N","city":"Minneapolis","day":"Day 1"}},{"type":"Feature","geometry":{"type":"Point","coordinates":[-93.29647827,45.00691986]},"properties":{"id":"1217","X":"-10385749.88","Y":"5622550.496","call_taken":"2015-12-30T00:00:00.000Z","location":"2630 Girard Ave n","city":"Minneapolis","day":"Day 2"}},{"type":"Feature","geometry":{"type":"Point","coordinates":[-93.29971313,45.00681305]},"properties":{"id":"1655","X":"-10386043.85","Y":"5622540.218","call_taken":"2015-12-31T00:00:00.000Z","location":"2627 Irving Ave N","city":"Minneapolis","day":"Day 3"}},{"type":"Feature","geometry":{"type":"Point","coordinates":[-93.31295776,45.00671768]},"properties":{"id":"949","X":"-10387584.66","Y":"5622544.791","call_taken":"2015-12-30T00:00:00.000Z","location":"2624 Thomas ave n","city":"Minneapolis","day":"Day 2"}},{"type":"Feature","geometry":{"type":"Point","coordinates":[-93.31325434,45.00669144]},"properties":{"id":"835","X":"-10387584.63","Y":"5622572.096","call_taken":"2015-12-30T00:00:00.000Z","location":"2634 Thomas ave n","city":"Minneapolis","day":"Day 2"}},{"type":"Feature","geometry":{"type":"Point","coordinates":[-93.24554935,45.00662774]},"properties":{"id":"1508","X":"-10380047.5","Y":"5622594.646","call_taken":"2015-12-31T00:00:00.000Z","location":"1821 Polk St NE","city":"Minneapolis","day":"Day 3"}},{"type":"Feature","geometry":{"type":"Point","coordinates":[-93.24337769,45.00644684]},"properties":{"id":"1621","X":"-10379849.39","Y":"5622547.729","call_taken":"2015-12-31T00:00:00.000Z","location":"1815 Taylor St NE","city":"Minneapolis","day":"Day 3"}},{"type":"Feature","geometry":{"type":"Point","coordinates":[-93.23337346,45.00619188]},"properties":{"id":"1323","X":"-10378692.63","Y":"5622486.416","call_taken":"2015-12-30T00:00:00.000Z","location":"1806 Garfield st ne","city":"Minneapolis","day":"Day 2"}},{"type":"Feature","geometry":{"type":"Point","coordinates":[-93.28331821,45.00613824]},"properties":{"id":"905","X":"-10382181.28","Y":"5623903.013","call_taken":"2015-12-30T00:00:00.000Z","location":"2610 3rd st n","city":"Minneapolis","day":"Day 2"}},{"type":"Feature","geometry":{"type":"Point","coordinates":[-93.25045243,45.0059773]},"properties":{"id":"1322","X":"-10380603.33","Y":"5622462.788","call_taken":"2015-12-30T00:00:00.000Z","location":"821 18th ave ne","city":"Minneapolis","day":"Day 2"}},{"type":"Feature","geometry":{"type":"Point","coordinates":[-93.25747378,45.00579558]},"properties":{"id":"1393","X":"-10381377.36","Y":"5622433.52","call_taken":"2015-12-30T00:00:00.000Z","location":"1745 washington st ne","city":"Minneapolis","day":"Day 2"}},{"type":"Feature","geometry":{"type":"Point","coordinates":[-93.25632982,45.00557698]},"properties":{"id":"942","X":"-10381247.78","Y":"5622387.056","call_taken":"2015-12-30T00:00:00.000Z","location":"1716 Adams St NE","city":"Minneapolis","day":"Day 2"}},{"type":"Feature","geometry":{"type":"Point","coordinates":[-93.29519653,45.00552368]},"properties":{"id":"572","X":"0","Y":"0","call_taken":"2015-12-30T00:00:00.000Z","location":"2518 Fremont ave n Minneapolis","city":"Minneapolis","day":"Day 1"}},{"type":"Feature","geometry":{"type":"Point","coordinates":[-93.28994751,45.00551987]},"properties":{"id":"1523","X":"-10384947.85","Y":"5622309.846","call_taken":"2015-12-31T00:00:00.000Z","location":"2517 Aldrich Ave n","city":"Minneapolis","day":"Day 3"}},{"type":"Feature","geometry":{"type":"Point","coordinates":[-93.29298401,45.00551224]},"properties":{"id":"1159","X":"-10385288.61","Y":"5622315.192","call_taken":"2015-12-31T00:00:00.000Z","location":"2519 dupont Ave n","city":"Minneapolis","day":"Day 3"}},{"type":"Feature","geometry":{"type":"Point","coordinates":[-93.31424713,45.00545502]},"properties":{"id":"920","X":"-10387727.46","Y":"5622343.733","call_taken":"2015-12-30T00:00:00.000Z","location":"2510 Upton ave n","city":"Minneapolis","day":"Day 2"}},{"type":"Feature","geometry":{"type":"Point","coordinates":[-93.25632647,45.00541002]},"properties":{"id":"994","X":"-10381247.68","Y":"5622357.926","call_taken":"2015-12-30T00:00:00.000Z","location":"1702 Adams St NE","city":"Minneapolis","day":"Day 2"}},{"type":"Feature","geometry":{"type":"Point","coordinates":[-93.26410554,45.00532486]},"properties":{"id":"1088","X":"-10382107.4","Y":"5622358.149","call_taken":"2015-12-31T00:00:00.000Z","location":"309 17th ave ne","city":"Minneapolis","day":"Day 3"}},{"type":"Feature","geometry":{"type":"Point","coordinates":[-92.9974135,45.00530541]},"properties":{"id":"501","X":"-10383489.43","Y":"5615478.136","call_taken":"2015-12-30T00:00:00.000Z","location":"2123 1st Street south","city":"Minneapolis","day":"Day 1"}},{"type":"Feature","geometry":{"type":"Point","coordinates":[-93.25838841,45.00528462]},"properties":{"id":"1090","X":"-10381468.21","Y":"5622352.323","call_taken":"2015-12-31T00:00:00.000Z","location":"607 17th ave ne","city":"Minneapolis","day":"Day 3"}},{"type":"Feature","geometry":{"type":"Point","coordinates":[-93.24236356,45.00526115]},"properties":{"id":"1356","X":"-10379688.96","Y":"5622314.624","call_taken":"2015-12-30T00:00:00.000Z","location":"1720 fillmore st ne","city":"Minneapolis","day":"Day 2"}},{"type":"Feature","geometry":{"type":"Point","coordinates":[-93.2566604,45.00520147]},"properties":{"id":"1547","X":"-10381270.04","Y":"5622341.062","call_taken":"2015-12-30T00:00:00.000Z","location":"634 17th ave ne","city":"Minneapolis","day":"Day 2"}},{"type":"Feature","geometry":{"type":"Point","coordinates":[-93.2580813,45.00519477]},"properties":{"id":"1417","X":"-10381408.01","Y":"5622340.451","call_taken":"2015-12-30T00:00:00.000Z","location":"612 17th ave ne","city":"Minneapolis","day":"Day 2"}},{"type":"Feature","geometry":{"type":"Point","coordinates":[-93.24871063,45.00516891]},"properties":{"id":"69","X":"-10380253.98","Y":"5622197.178","call_taken":"2015-12-29T00:00:00.000Z","location":"1620 Central Ave NE","city":"Minneapolis","day":"Day 1"}},{"type":"Feature","geometry":{"type":"Point","coordinates":[-93.31338309,45.00515386]},"properties":{"id":"1481","X":"-10387597.22","Y":"5622335.251","call_taken":"2015-12-31T00:00:00.000Z","location":"2505 Thomas ave n","city":"Minneapolis","day":"Day 3"}},{"type":"Feature","geometry":{"type":"Point","coordinates":[-93.31453644,45.00512771]},"properties":{"id":"940","X":"-10387727.48","Y":"5622330.212","call_taken":"2015-12-30T00:00:00.000Z","location":"2500 upton ave n","city":"Minneapolis","day":"Day 2"}},{"type":"Feature","geometry":{"type":"Point","coordinates":[-93.28638732,45.00494465]},"properties":{"id":"978","X":"-10384595.34","Y":"5622285.617","call_taken":"2015-12-30T00:00:00.000Z","location":"2502 6th st n","city":"Minneapolis","day":"Day 2"}},{"type":"Feature","geometry":{"type":"Point","coordinates":[-93.28638732,45.00492722]},"properties":{"id":"980","X":"-10384595.33","Y":"5622282.256","call_taken":"2015-12-30T00:00:00.000Z","location":"2500 6th st n","city":"Minneapolis","day":"Day 2"}},{"type":"Feature","geometry":{"type":"Point","coordinates":[-93.24390411,45.00488663]},"properties":{"id":"1253","X":"-10379831.6","Y":"5622280.523","call_taken":"2015-12-30T00:00:00.000Z","location":"1626 taylor st ne","city":"Minneapolis","day":"Day 2"}},{"type":"Feature","geometry":{"type":"Point","coordinates":[-93.25894564,45.00437871]},"properties":{"id":"819","X":"-10381538.89","Y":"5622212.513","call_taken":"2015-12-30T00:00:00.000Z","location":"1622 6th st ne","city":"Minneapolis","day":"Day 2"}},{"type":"Feature","geometry":{"type":"Point","coordinates":[-93.31453644,45.00437267]},"properties":{"id":"904","X":"-10387727.69","Y":"5622197.7","call_taken":"2015-12-30T00:00:00.000Z","location":"2402 upton ave n","city":"Minneapolis","day":"Day 2"}},{"type":"Feature","geometry":{"type":"Point","coordinates":[-93.28535461,45.00418091]},"properties":{"id":"1610","X":"-10384437.56","Y":"5622130.604","call_taken":"2015-12-31T00:00:00.000Z","location":"2415 4th ST N","city":"Minneapolis","day":"Day 3"}},{"type":"Feature","geometry":{"type":"Point","coordinates":[-93.290603,45.004131]},"properties":{"id":"1213","X":"-10385106.48","Y":"5622125.695","call_taken":"2015-12-30T00:00:00.000Z","location":"2410 Bryant Ave n","city":"Minneapolis","day":"Day 2"}},{"type":"Feature","geometry":{"type":"Point","coordinates":[-93.25793457,45.00409317]},"properties":{"id":"209","X":"-10381388.87","Y":"5622070.351","call_taken":"2015-12-30T00:00:00.000Z","location":"1534 Washington St NE","city":"Minneapolis","day":"Day 1"}},{"type":"Feature","geometry":{"type":"Point","coordinates":[-93.25793457,45.00409317]},"properties":{"id":"251","X":"-10381388.87","Y":"5622070.351","call_taken":"2015-12-30T00:00:00.000Z","location":"1534 Washington St NE","city":"Minneapolis","day":"Day 1"}},{"type":"Feature","geometry":{"type":"Point","coordinates":[-93.31296539,45.00408173]},"properties":{"id":"829","X":"-10387585.56","Y":"5622063.159","call_taken":"2015-12-30T00:00:00.000Z","location":"2356 Thomas  Ave N","city":"Minneapolis","day":"Day 2"}},{"type":"Feature","geometry":{"type":"Point","coordinates":[-93.28332625,45.00397235]},"properties":{"id":"469","X":"0","Y":"0","call_taken":"2015-12-30T00:00:00.000Z","location":"2418  N 3rd st","city":"Minneapolis","day":"Day 2"}},{"type":"Feature","geometry":{"type":"Point","coordinates":[-93.31424713,45.00387192]},"properties":{"id":"951","X":"-10387727.99","Y":"5622047.419","call_taken":"2015-12-30T00:00:00.000Z","location":"2350 upton ave n","city":"Minneapolis","day":"Day 2"}},{"type":"Feature","geometry":{"type":"Point","coordinates":[-93.26619364,45.00383422]},"properties":{"id":"702","X":"-10382346.82","Y":"5622131.088","call_taken":"2015-12-30T00:00:00.000Z","location":"1572 2nd St NE","city":"Minneapolis","day":"Day 1"}},{"type":"Feature","geometry":{"type":"Point","coordinates":[-93.25665283,45.00363922]},"properties":{"id":"1244","X":"-10381246.88","Y":"5622041.859","call_taken":"2015-12-30T00:00:00.000Z","location":"1516 ADAMS ST NE","city":"Minneapolis","day":"Day 2"}},{"type":"Feature","geometry":{"type":"Point","coordinates":[-93.25507723,45.00358343]},"properties":{"id":"971","X":"-10381105.59","Y":"5622112.729","call_taken":"2015-12-30T00:00:00.000Z","location":"1540 jefferson st ne","city":"Minneapolis","day":"Day 2"}},{"type":"Feature","geometry":{"type":"Point","coordinates":[-93.31338912,45.00341848]},"properties":{"id":"1475","X":"-10387597.75","Y":"5622063.181","call_taken":"2015-12-31T00:00:00.000Z","location":"2357 Thomas ave n","city":"Minneapolis","day":"Day 3"}},{"type":"Feature","geometry":{"type":"Point","coordinates":[-93.29366302,45.00316238]},"properties":{"id":"312","X":"-10385446.57","Y":"5621956.47","call_taken":"2015-12-30T00:00:00.000Z","location":"2312 Emerson Ave n","city":"Minneapolis","day":"Day 1"}},{"type":"Feature","geometry":{"type":"Point","coordinates":[-93.25214088,45.00313215]},"properties":{"id":"1656","X":"-10380796.8","Y":"5622011.957","call_taken":"2015-12-31T00:00:00.000Z","location":"713 15th ave ne","city":"Minneapolis","day":"Day 3"}},{"type":"Feature","geometry":{"type":"Point","coordinates":[-93.26264173,45.00312477]},"properties":{"id":"1643","X":"-10381947.56","Y":"5622010.51","call_taken":"2015-12-31T00:00:00.000Z","location":"347 15th ave ne","city":"Minneapolis","day":"Day 3"}},{"type":"Feature","geometry":{"type":"Point","coordinates":[-93.26158905,45.00307846]},"properties":{"id":"1265","X":"-10380968.91","Y":"5613305.64","call_taken":"2015-12-30T00:00:00.000Z","location":"3030 15th ave NE","city":"Minneapolis","day":"Day 2"}},{"type":"Feature","geometry":{"type":"Point","coordinates":[-93.27132739,45.00307582]},"properties":{"id":"229","X":"-10382904.74","Y":"5621925.679","call_taken":"2015-12-30T00:00:00.000Z","location":"1502 Marshall St NE","city":"Minneapolis","day":"Day 1"}},{"type":"Feature","geometry":{"type":"Point","coordinates":[-93.25343437,45.00303693]},"properties":{"id":"1415","X":"-10380938.64","Y":"5621999.354","call_taken":"2015-12-30T00:00:00.000Z","location":"682 15th ave ne","city":"Minneapolis","day":"Day 2"}},{"type":"Feature","geometry":{"type":"Point","coordinates":[-93.27083588,45.00294495]},"properties":{"id":"215","X":"-10382892.21","Y":"5621922.808","call_taken":"2015-12-30T00:00:00.000Z","location":"1501 Marshall St NE","city":"Minneapolis","day":"Day 1"}},{"type":"Feature","geometry":{"type":"Point","coordinates":[-93.2863766,45.00292897]},"properties":{"id":"932","X":"-10384594.21","Y":"5621976.096","call_taken":"2015-12-30T00:00:00.000Z","location":"2326 6th st n","city":"Minneapolis","day":"Day 2"}},{"type":"Feature","geometry":{"type":"Point","coordinates":[-93.25665283,45.00292587]},"properties":{"id":"1549","X":"-10381257.05","Y":"5621999.499","call_taken":"2015-12-30T00:00:00.000Z","location":"636 15th ave ne","city":"Minneapolis","day":"Day 2"}},{"type":"Feature","geometry":{"type":"Point","coordinates":[-93.25665283,45.00292587]},"properties":{"id":"1551","X":"-10381257.05","Y":"5621999.499","call_taken":"2015-12-30T00:00:00.000Z","location":"636 15th ave ne","city":"Minneapolis","day":"Day 2"}},{"type":"Feature","geometry":{"type":"Point","coordinates":[-93.2848464,45.0028874]},"properties":{"id":"781","X":"0","Y":"0","call_taken":"2015-12-30T00:00:00.000Z","location":"2322 N 4th st","city":"Minneapolis","day":"Day 2"}},{"type":"Feature","geometry":{"type":"Point","coordinates":[-93.28026384,45.00286594]},"properties":{"id":"381","X":"0","Y":"0","call_taken":"2015-12-30T00:00:00.000Z","location":"2321 n 2nd st","city":"Minneapolis","day":"Day 1"}},{"type":"Feature","geometry":{"type":"Point","coordinates":[-93.2848464,45.00285253]},"properties":{"id":"903","X":"0","Y":"0","call_taken":"2015-12-30T00:00:00.000Z","location":"2318 N 4th st","city":"Minneapolis","day":"Day 2"}},{"type":"Feature","geometry":{"type":"Point","coordinates":[-93.28344561,45.00282638]},"properties":{"id":"1498","X":"-10384265.23","Y":"5621955.159","call_taken":"2015-12-31T00:00:00.000Z","location":"2315 3RD ST N","city":"Minneapolis","day":"Day 3"}},{"type":"Feature","geometry":{"type":"Point","coordinates":[-93.29367828,45.00282288]},"properties":{"id":"303","X":"-10385446.58","Y":"5621943.112","call_taken":"2015-12-29T00:00:00.000Z","location":"2304 Emerson Ave. N","city":"Minneapolis","day":"Day 1"}},{"type":"Feature","geometry":{"type":"Point","coordinates":[-93.2848464,45.0028009]},"properties":{"id":"774","X":"0","Y":"0","call_taken":"2015-12-30T00:00:00.000Z","location":"2312 N 4th st","city":"Minneapolis","day":"Day 2"}},{"type":"Feature","geometry":{"type":"Point","coordinates":[-93.3119823,45.00279553]},"properties":{"id":"1386","X":"-10387442.09","Y":"5621952.641","call_taken":"2015-12-30T00:00:00.000Z","location":"2316 sheridan Ave N","city":"Minneapolis","day":"Day 2"}},{"type":"Feature","geometry":{"type":"Point","coordinates":[-93.25749859,45.00271037]},"properties":{"id":"165","X":"-10381376.4","Y":"5621955.634","call_taken":"2015-12-30T00:00:00.000Z","location":"1475 Washington St NE","city":"Minneapolis","day":"Day 1"}},{"type":"Feature","geometry":{"type":"Point","coordinates":[-93.25130463,45.00265121]},"properties":{"id":"1542","X":"-10380799.39","Y":"5621999.768","call_taken":"2015-12-30T00:00:00.000Z","location":"710 15th ave ne","city":"Minneapolis","day":"Day 2"}},{"type":"Feature","geometry":{"type":"Point","coordinates":[-93.31325702,45.00254743]},"properties":{"id":"808","X":"-10387585.82","Y":"5621910.432","call_taken":"2015-12-30T00:00:00.000Z","location":"2300 Thomas  Ave  N","city":"Minneapolis","day":"Day 2"}},{"type":"Feature","geometry":{"type":"Point","coordinates":[-93.31368256,45.00254059]},"properties":{"id":"1453","X":"-10387598.01","Y":"5621910.453","call_taken":"2015-12-31T00:00:00.000Z","location":"2301 THomas ave n","city":"Minneapolis","day":"Day 3"}},{"type":"Feature","geometry":{"type":"Point","coordinates":[-93.27149963,45.00250244]},"properties":{"id":"223","X":"-10382891.43","Y":"5621800.245","call_taken":"2015-12-30T00:00:00.000Z","location":"1440 Marshall St NE","city":"Minneapolis","day":"Day 1"}},{"type":"Feature","geometry":{"type":"Point","coordinates":[-93.30285645,45.00242233]},"properties":{"id":"1521","X":"-10386431.43","Y":"5621826.502","call_taken":"2015-12-31T00:00:00.000Z","location":"2223 illion ave n","city":"Minneapolis","day":"Day 3"}},{"type":"Feature","geometry":{"type":"Point","coordinates":[-93.26619364,45.00234626]},"properties":{"id":"708","X":"-10382346.63","Y":"5621881.45","call_taken":"2015-12-30T00:00:00.000Z","location":"1426 2nd St NE","city":"Minneapolis","day":"Day 1"}},{"type":"Feature","geometry":{"type":"Point","coordinates":[-93.26689148,45.00229263]},"properties":{"id":"1676","X":"-10382465.49","Y":"5621840.254","call_taken":"2015-12-31T00:00:00.000Z","location":"163 14th ave ne","city":"Minneapolis","day":"Day 3"}},{"type":"Feature","geometry":{"type":"Point","coordinates":[-93.28450012,45.00219727]},"properties":{"id":"917","X":"0","Y":"0","call_taken":"2015-12-30T00:00:00.000Z","location":"2222 N 4th st","city":"Minneapolis","day":"Day 2"}},{"type":"Feature","geometry":{"type":"Point","coordinates":[-93.25665283,45.00214767]},"properties":{"id":"975","X":"-10381246.5","Y":"5621839.665","call_taken":"2015-12-30T00:00:00.000Z","location":"1402 adams st ne","city":"Minneapolis","day":"Day 2"}},{"type":"Feature","geometry":{"type":"Point","coordinates":[-93.31368256,45.00200653]},"properties":{"id":"1487","X":"-10387598.16","Y":"5621793.452","call_taken":"2015-12-31T00:00:00.000Z","location":"2215 Thomas ave n","city":"Minneapolis","day":"Day 3"}},{"type":"Feature","geometry":{"type":"Point","coordinates":[-93.28450012,45.00198364]},"properties":{"id":"923","X":"0","Y":"0","call_taken":"2015-12-30T00:00:00.000Z","location":"2214 N 4th st","city":"Minneapolis","day":"Day 2"}},{"type":"Feature","geometry":{"type":"Point","coordinates":[-93.28690338,45.00197601]},"properties":{"id":"1485","X":"-10384608.74","Y":"5621783.164","call_taken":"2015-12-31T00:00:00.000Z","location":"2215 6th st n","city":"Minneapolis","day":"Day 3"}},{"type":"Feature","geometry":{"type":"Point","coordinates":[-93.27113092,45.00190303]},"properties":{"id":"174","X":"-10382890.07","Y":"5621788.124","call_taken":"2015-12-30T00:00:00.000Z","location":"1434 Marshall St NE","city":"Minneapolis","day":"Day 1"}},{"type":"Feature","geometry":{"type":"Point","coordinates":[-93.27113092,45.00190303]},"properties":{"id":"206","X":"-10382890.07","Y":"5621788.124","call_taken":"2015-12-30T00:00:00.000Z","location":"1434 Marshall St NE","city":"Minneapolis","day":"Day 1"}},{"type":"Feature","geometry":{"type":"Point","coordinates":[-93.27113092,45.00190303]},"properties":{"id":"235","X":"-10382890.07","Y":"5621788.124","call_taken":"2015-12-30T00:00:00.000Z","location":"1434 Marshall St NE","city":"Minneapolis","day":"Day 1"}},{"type":"Feature","geometry":{"type":"Point","coordinates":[-93.29369354,45.00187683]},"properties":{"id":"636","X":"-10385446.78","Y":"5621780.037","call_taken":"2015-12-30T00:00:00.000Z","location":"2210 emerson ave north","city":"Minneapolis","day":"Day 1"}},{"type":"Feature","geometry":{"type":"Point","coordinates":[-93.28450012,45.00187302]},"properties":{"id":"988","X":"0","Y":"0","call_taken":"2015-12-30T00:00:00.000Z","location":"2210 N 4th st","city":"Minneapolis","day":"Day 2"}},{"type":"Feature","geometry":{"type":"Point","coordinates":[-93.30856323,45.00178528]},"properties":{"id":"402","X":"-10387028.05","Y":"5621764.843","call_taken":"2015-12-30T00:00:00.000Z","location":"2207 penn ave no","city":"Minneapolis","day":"Day 1"}},{"type":"Feature","geometry":{"type":"Point","coordinates":[-93.29369354,45.00164413]},"properties":{"id":"100","X":"-10385446.8","Y":"5621763.448","call_taken":"2015-12-29T00:00:00.000Z","location":"2200 Emerson Ave N","city":"Minneapolis","day":"Day 1"}},{"type":"Feature","geometry":{"type":"Point","coordinates":[-93.28756714,45.00164413]},"properties":{"id":"113","X":"-10384765.45","Y":"5621760.367","call_taken":"2015-12-29T00:00:00.000Z","location":"2200 Lyndale ave n","city":"Minneapolis","day":"Day 1"}},{"type":"Feature","geometry":{"type":"Point","coordinates":[-93.28464508,45.00163651]},"properties":{"id":"772","X":"0","Y":"0","call_taken":"2015-12-30T00:00:00.000Z","location":"2200 N 4th st","city":"Minneapolis","day":"Day 2"}},{"type":"Feature","geometry":{"type":"Point","coordinates":[-93.27002183,45.00153691]},"properties":{"id":"1670","X":"-10382734.78","Y":"5621779.661","call_taken":"2015-12-31T00:00:00.000Z","location":"117 14th ave ne","city":"Minneapolis","day":"Day 3"}},{"type":"Feature","geometry":{"type":"Point","coordinates":[-93.26986291,45.00149265]},"properties":{"id":"805","X":"-10382699.49","Y":"5621783.171","call_taken":"2015-12-30T00:00:00.000Z","location":"120 14th ave ne","city":"Minneapolis","day":"Day 2"}},{"type":"Feature","geometry":{"type":"Point","coordinates":[-93.2540741,45.00143051]},"properties":{"id":"855","X":"-10380962.78","Y":"5621696.547","call_taken":"2015-12-30T00:00:00.000Z","location":"1314 madison st ne","city":"Minneapolis","day":"Day 2"}},{"type":"Feature","geometry":{"type":"Point","coordinates":[-93.269874,45.001285]},"properties":{"id":"187","X":"-10380216.59","Y":"5617643.818","call_taken":"2015-12-30T00:00:00.000Z","location":"116 14th ave s","city":"Minneapolis","day":"Day 1"}},{"type":"Feature","geometry":{"type":"Point","coordinates":[-93.29299164,45.00121307]},"properties":{"id":"1163","X":"-10385289.3","Y":"5621611.796","call_taken":"2015-12-31T00:00:00.000Z","location":"2125 dupont Ave n","city":"Minneapolis","day":"Day 3"}},{"type":"Feature","geometry":{"type":"Point","coordinates":[-93.25663757,45.00116348]},"properties":{"id":"977","X":"-10381246.23","Y":"5621683.915","call_taken":"2015-12-30T00:00:00.000Z","location":"1306 Adams St NE","city":"Minneapolis","day":"Day 2"}},{"type":"Feature","geometry":{"type":"Point","coordinates":[-93.31295776,45.00108719]},"properties":{"id":"989","X":"-10387586.28","Y":"5621643.228","call_taken":"2015-12-30T00:00:00.000Z","location":"2114 Thomas Ave N","city":"Minneapolis","day":"Day 2"}},{"type":"Feature","geometry":{"type":"Point","coordinates":[-93.26030351,45.00107624]},"properties":{"id":"959","X":"-10381689.18","Y":"5621676.198","call_taken":"2015-12-30T00:00:00.000Z","location":"1302 5th st ne","city":"Minneapolis","day":"Day 2"}},{"type":"Feature","geometry":{"type":"Point","coordinates":[-93.2990799,45.00101852]},"properties":{"id":"1476","X":"-10385976.6","Y":"5621611.956","call_taken":"2015-12-31T00:00:00.000Z","location":"2123 irving ave n","city":"Minneapolis","day":"Day 3"}},{"type":"Feature","geometry":{"type":"Point","coordinates":[-93.290596,45.00098]},"properties":{"id":"839","X":"-10385106.55","Y":"5621607.118","call_taken":"2015-12-30T00:00:00.000Z","location":"2122 Bryant ave n","city":"Minneapolis","day":"Day 2"}},{"type":"Feature","geometry":{"type":"Point","coordinates":[-93.26245129,45.00094481]},"properties":{"id":"20","X":"-10381930.34","Y":"5621668.978","call_taken":"2015-12-29T00:00:00.000Z","location":"357 13th Ave NE","city":"Minneapolis","day":"Day 1"}},{"type":"Feature","geometry":{"type":"Point","coordinates":[-93.26023981,45.00092]},"properties":{"id":"72","X":"-10381683.07","Y":"5621662.725","call_taken":"2015-12-29T00:00:00.000Z","location":"13th Ave & 5th St NE","city":"Minneapolis","day":"Day 1"}},{"type":"Feature","geometry":{"type":"Point","coordinates":[-93.26927948,45.00082397]},"properties":{"id":"967","X":"-10382626.29","Y":"5621632.99","call_taken":"2015-12-30T00:00:00.000Z","location":"1310 Grand St NE","city":"Minneapolis","day":"Day 2"}},{"type":"Feature","geometry":{"type":"Point","coordinates":[-93.26878063,45.00080064]},"properties":{"id":"974","X":"-10382627.97","Y":"5621636.398","call_taken":"2015-12-30T00:00:00.000Z","location":"1312 grand st ne","city":"Minneapolis","day":"Day 2"}},{"type":"Feature","geometry":{"type":"Point","coordinates":[-93.29910278,45.00078583]},"properties":{"id":"1467","X":"-10385978.58","Y":"5621596.869","call_taken":"2015-12-31T00:00:00.000Z","location":"2115 irving ave n","city":"Minneapolis","day":"Day 3"}},{"type":"Feature","geometry":{"type":"Point","coordinates":[-93.312416,45.00074]},"properties":{"id":"1470","X":"-10387456.12","Y":"5621624.297","call_taken":"2015-12-31T00:00:00.000Z","location":"2101 sheridan ave n","city":"Minneapolis","day":"Day 3"}},{"type":"Feature","geometry":{"type":"Point","coordinates":[-93.26920319,45.00071335]},"properties":{"id":"948","X":"-10382624.61","Y":"5621629.581","call_taken":"2015-12-30T00:00:00.000Z","location":"1308 Grand St NE","city":"Minneapolis","day":"Day 2"}},{"type":"Feature","geometry":{"type":"Point","coordinates":[-93.26856002,45.00059009]},"properties":{"id":"507","X":"0","Y":"0","call_taken":"2015-12-30T00:00:00.000Z","location":"13th Ave & Grand","city":"Minneapolis","day":"Day 1"}},{"type":"Feature","geometry":{"type":"Point","coordinates":[-93.26856002,45.00059009]},"properties":{"id":"510","X":"0","Y":"0","call_taken":"2015-12-30T00:00:00.000Z","location":"13th Ave & Grand","city":"Minneapolis","day":"Day 1"}},{"type":"Feature","geometry":{"type":"Point","coordinates":[-93.26856002,45.00059009]},"properties":{"id":"519","X":"0","Y":"0","call_taken":"2015-12-30T00:00:00.000Z","location":"13th Ave & Grand","city":"Minneapolis","day":"Day 1"}},{"type":"Feature","geometry":{"type":"Point","coordinates":[-93.26856002,45.00059009]},"properties":{"id":"587","X":"-10382609.8","Y":"5621613.314","call_taken":"2015-12-30T00:00:00.000Z","location":"13th Ave NE & Grand","city":"Minneapolis","day":"Day 1"}},{"type":"Feature","geometry":{"type":"Point","coordinates":[-93.26856002,45.00059009]},"properties":{"id":"651","X":"0","Y":"0","call_taken":"2015-12-30T00:00:00.000Z","location":"13th & Grand","city":"Minneapolis","day":"Day 1"}},{"type":"Feature","geometry":{"type":"Point","coordinates":[-93.29535675,45.00055695]},"properties":{"id":"600","X":"0","Y":"0","call_taken":"2015-12-30T00:00:00.000Z","location":"2106 Fremont ace n Minneapolis","city":"Minneapolis","day":"Day 1"}},{"type":"Feature","geometry":{"type":"Point","coordinates":[-93.246709,45.00052]},"properties":{"id":"554","X":"0","Y":"0","call_taken":"2015-12-30T00:00:00.000Z","location":"13 Ave NE","city":"Minneapolis","day":"Day 1"}},{"type":"Feature","geometry":{"type":"Point","coordinates":[-93.2689704,45.0004942]},"properties":{"id":"603","X":"-10382596.06","Y":"5621626.728","call_taken":"2015-12-30T00:00:00.000Z","location":"127 13th Ave NE","city":"Minneapolis","day":"Day 1"}},{"type":"Feature","geometry":{"type":"Point","coordinates":[-93.26964569,45.0004921]},"properties":{"id":"575","X":"-10382726.79","Y":"5621563.331","call_taken":"2015-12-30T00:00:00.000Z","location":"107 13th Ave NE","city":"Minneapolis","day":"Day 1"}},{"type":"Feature","geometry":{"type":"Point","coordinates":[-93.26964569,45.0004921]},"properties":{"id":"580","X":"-10382726.79","Y":"5621563.331","call_taken":"2015-12-30T00:00:00.000Z","location":"107 13th Ave NE","city":"Minneapolis","day":"Day 1"}},{"type":"Feature","geometry":{"type":"Point","coordinates":[-93.26964569,45.0004921]},"properties":{"id":"627","X":"-10382726.79","Y":"5621563.331","call_taken":"2015-12-30T00:00:00.000Z","location":"107 13th Ave NE","city":"Minneapolis","day":"Day 1"}},{"type":"Feature","geometry":{"type":"Point","coordinates":[-93.26964569,45.0004921]},"properties":{"id":"632","X":"-10382726.79","Y":"5621563.331","call_taken":"2015-12-30T00:00:00.000Z","location":"107 13th Ave NE","city":"Minneapolis","day":"Day 1"}},{"type":"Feature","geometry":{"type":"Point","coordinates":[-93.26964569,45.0004921]},"properties":{"id":"692","X":"-10382726.79","Y":"5621563.331","call_taken":"2015-12-30T00:00:00.000Z","location":"107 13th Ave NE","city":"Minneapolis","day":"Day 1"}},{"type":"Feature","geometry":{"type":"Point","coordinates":[-93.26964569,45.0004921]},"properties":{"id":"719","X":"-10382726.79","Y":"5621563.331","call_taken":"2015-12-30T00:00:00.000Z","location":"107 13th Ave NE","city":"Minneapolis","day":"Day 1"}},{"type":"Feature","geometry":{"type":"Point","coordinates":[-93.26964569,45.0004921]},"properties":{"id":"734","X":"-10382726.79","Y":"5621563.331","call_taken":"2015-12-30T00:00:00.000Z","location":"107 13th Ave NE","city":"Minneapolis","day":"Day 1"}},{"type":"Feature","geometry":{"type":"Point","coordinates":[-93.269645,45.000492]},"properties":{"id":"703","X":"-10382726.79","Y":"5621563.331","call_taken":"2015-12-30T00:00:00.000Z","location":"107 13th Ave NE","city":"Minneapolis","day":"Day 1"}},{"type":"Feature","geometry":{"type":"Point","coordinates":[-93.25749792,45.00031047]},"properties":{"id":"264","X":"-10381375.58","Y":"5621576.699","call_taken":"2015-12-30T00:00:00.000Z","location":"1253 Washington St NE","city":"Minneapolis","day":"Day 1"}},{"type":"Feature","geometry":{"type":"Point","coordinates":[-93.30783081,45.00026321]},"properties":{"id":"298","X":"-10387016.26","Y":"5621495.318","call_taken":"2015-12-30T00:00:00.000Z","location":"2018 penn Ave n","city":"Minneapolis","day":"Day 1"}},{"type":"Feature","geometry":{"type":"Point","coordinates":[-93.26620035,45.00014752]},"properties":{"id":"642","X":"-10382346.11","Y":"5621536.204","call_taken":"2015-12-30T00:00:00.000Z","location":"1224 2nd St NE","city":"Minneapolis","day":"Day 1"}},{"type":"Feature","geometry":{"type":"Point","coordinates":[-93.26538086,45.00014114]},"properties":{"id":"1174","X":"-10382312.11","Y":"5621497.904","call_taken":"2015-12-31T00:00:00.000Z","location":"215 12th ave ne","city":"Minneapolis","day":"Day 3"}},{"type":"Feature","geometry":{"type":"Point","coordinates":[-93.3019104,45.00013733]},"properties":{"id":"1608","X":"-10386275.26","Y":"5621547.329","call_taken":"2015-12-31T00:00:00.000Z","location":"2017 James ave n","city":"Minneapolis","day":"Day 3"}},{"type":"Feature","geometry":{"type":"Point","coordinates":[-93.29532623,45.00012589]},"properties":{"id":"631","X":"-10385616.79","Y":"5621497.79","call_taken":"2015-12-30T00:00:00.000Z","location":"2026 Fremont Ave n","city":"Minneapolis","day":"Day 1"}},{"type":"Feature","geometry":{"type":"Point","coordinates":[-93.27001981,45.00006974]},"properties":{"id":"756","X":"0","Y":"0","call_taken":"2015-12-30T00:00:00.000Z","location":"13th & Marshall","city":"Minneapolis","day":"Day 1"}},{"type":"Feature","geometry":{"type":"Point","coordinates":[-93.27001981,45.00006974]},"properties":{"id":"766","X":"-10382770","Y":"5621535.589","call_taken":"2015-12-30T00:00:00.000Z","location":"13th Ave NE & Marshall","city":"Minneapolis","day":"Day 1"}},{"type":"Feature","geometry":{"type":"Point","coordinates":[-93.25662994,44.99996948]},"properties":{"id":"955","X":"-10381245.85","Y":"5621496.04","call_taken":"2015-12-30T00:00:00.000Z","location":"1202 Adams st NE","city":"Minneapolis","day":"Day 2"}},{"type":"Feature","geometry":{"type":"Point","coordinates":[-93.31423187,44.99992371]},"properties":{"id":"907","X":"-10387729.12","Y":"5621492.374","call_taken":"2015-12-30T00:00:00.000Z","location":"2010 Upton ave n","city":"Minneapolis","day":"Day 2"}},{"type":"Feature","geometry":{"type":"Point","coordinates":[-93.26716527,44.99986187]},"properties":{"id":"1172","X":"-10382462.15","Y":"5621498.315","call_taken":"2015-12-31T00:00:00.000Z","location":"127 12th ave ne","city":"Minneapolis","day":"Day 3"}},{"type":"Feature","geometry":{"type":"Point","coordinates":[-93.26711901,44.99986187]},"properties":{"id":"1186","X":"-10382455.65","Y":"5621498.286","call_taken":"2015-12-31T00:00:00.000Z","location":"131 12th ave ne","city":"Minneapolis","day":"Day 3"}},{"type":"Feature","geometry":{"type":"Point","coordinates":[-93.26709621,44.9998612]},"properties":{"id":"1182","X":"-10382452.4","Y":"5621498.272","call_taken":"2015-12-31T00:00:00.000Z","location":"133 12th ave ne","city":"Minneapolis","day":"Day 3"}},{"type":"Feature","geometry":{"type":"Point","coordinates":[-93.26707274,44.9998612]},"properties":{"id":"1184","X":"-10382449.15","Y":"5621498.257","call_taken":"2015-12-31T00:00:00.000Z","location":"135 12th ave ne","city":"Minneapolis","day":"Day 3"}},{"type":"Feature","geometry":{"type":"Point","coordinates":[-93.31423187,44.99982071]},"properties":{"id":"797","X":"-10387729.14","Y":"5621486.972","call_taken":"2015-12-30T00:00:00.000Z","location":"2006 upton  Ave N","city":"Minneapolis","day":"Day 2"}},{"type":"Feature","geometry":{"type":"Point","coordinates":[-93.30531311,44.99977493]},"properties":{"id":"1416","X":"-10386735.87","Y":"5621383.517","call_taken":"2015-12-30T00:00:00.000Z","location":"1928 newton ave n","city":"Minneapolis","day":"Day 2"}},{"type":"Feature","geometry":{"type":"Point","coordinates":[-93.26681994,44.99977]},"properties":{"id":"817","X":"-10382413.47","Y":"5621485.905","call_taken":"2015-12-30T00:00:00.000Z","location":"156 12th ave ne","city":"Minneapolis","day":"Day 2"}},{"type":"Feature","geometry":{"type":"Point","coordinates":[-93.26582886,44.99976732]},"properties":{"id":"815","X":"-10382318.61","Y":"5621485.68","call_taken":"2015-12-30T00:00:00.000Z","location":"210 12th ave ne","city":"Minneapolis","day":"Day 2"}},{"type":"Feature","geometry":{"type":"Point","coordinates":[-93.26580539,44.99976732]},"properties":{"id":"821","X":"-10382315.33","Y":"5621485.696","call_taken":"2015-12-30T00:00:00.000Z","location":"212 12th ave ne","city":"Minneapolis","day":"Day 2"}},{"type":"Feature","geometry":{"type":"Point","coordinates":[-93.25662994,44.99960709]},"properties":{"id":"941","X":"-10381245.6","Y":"5621377.903","call_taken":"2015-12-30T00:00:00.000Z","location":"1130 Adams St NE","city":"Minneapolis","day":"Day 2"}},{"type":"Feature","geometry":{"type":"Point","coordinates":[-93.30782318,44.9995575]},"properties":{"id":"297","X":"-10387016.37","Y":"5621365.187","call_taken":"2015-12-30T00:00:00.000Z","location":"1922 penn ave n","city":"Minneapolis","day":"Day 1"}},{"type":"Feature","geometry":{"type":"Point","coordinates":[-93.31295776,44.99949265]},"properties":{"id":"884","X":"-10387586.8","Y":"5621372.278","call_taken":"2015-12-30T00:00:00.000Z","location":"1922 thomas ave n","city":"Minneapolis","day":"Day 2"}},{"type":"Feature","geometry":{"type":"Point","coordinates":[-93.25926971,44.9994278]},"properties":{"id":"830","X":"-10381537.93","Y":"5621364.833","call_taken":"2015-12-30T00:00:00.000Z","location":"1122 - 6th st ne","city":"Minneapolis","day":"Day 2"}},{"type":"Feature","geometry":{"type":"Point","coordinates":[-93.29404168,44.99941126]},"properties":{"id":"660","X":"-10385446.3","Y":"5621486.949","call_taken":"2015-12-30T00:00:00.000Z","location":"2014 emerson ave north","city":"Minneapolis","day":"Day 1"}},{"type":"Feature","geometry":{"type":"Point","coordinates":[-93.3060379,44.99939728]},"properties":{"id":"1511","X":"-10386748.08","Y":"5621361.126","call_taken":"2015-12-31T00:00:00.000Z","location":"1917 NEWTON AVE N","city":"Minneapolis","day":"Day 3"}},{"type":"Feature","geometry":{"type":"Point","coordinates":[-93.31168365,44.99936676]},"properties":{"id":"1263","X":"-10387444.2","Y":"5621365.057","call_taken":"2015-12-30T00:00:00.000Z","location":"1918 sheridan Ave  N","city":"Minneapolis","day":"Day 2"}},{"type":"Feature","geometry":{"type":"Point","coordinates":[-93.25662231,44.99933624]},"properties":{"id":"954","X":"-10381245.56","Y":"5621358.213","call_taken":"2015-12-30T00:00:00.000Z","location":"1118 Adams St NE","city":"Minneapolis","day":"Day 2"}},{"type":"Feature","geometry":{"type":"Point","coordinates":[-93.30562614,44.99910749]},"properties":{"id":"1381","X":"0","Y":"0","call_taken":"2015-12-30T00:00:00.000Z","location":"1908 Neuton Ave N","city":"Minneapolis","day":"Day 2"}},{"type":"Feature","geometry":{"type":"Point","coordinates":[-93.31197627,44.99905989]},"properties":{"id":"1387","X":"-10387444.2","Y":"5621362.353","call_taken":"2015-12-30T00:00:00.000Z","location":"1916 sheridan ave n","city":"Minneapolis","day":"Day 2"}},{"type":"Feature","geometry":{"type":"Point","coordinates":[-93.2563144,44.99905653]},"properties":{"id":"961","X":"-10381245.57","Y":"5621361.495","call_taken":"2015-12-30T00:00:00.000Z","location":"1120 adams st ne","city":"Minneapolis","day":"Day 2"}},{"type":"Feature","geometry":{"type":"Point","coordinates":[-93.31708655,44.99898277]},"properties":{"id":"1398","X":"-10388013.73","Y":"5621349.143","call_taken":"2015-12-30T00:00:00.000Z","location":"1902 washburn ave n","city":"Minneapolis","day":"Day 2"}},{"type":"Feature","geometry":{"type":"Point","coordinates":[-93.31324629,44.99896266]},"properties":{"id":"886","X":"-10387586.85","Y":"5621345.335","call_taken":"2015-12-30T00:00:00.000Z","location":"1902 Thomas  Ave N","city":"Minneapolis","day":"Day 2"}},{"type":"Feature","geometry":{"type":"Point","coordinates":[-93.26029614,44.99888554]},"properties":{"id":"965","X":"-10381688.39","Y":"5621334.663","call_taken":"2015-12-30T00:00:00.000Z","location":"1104 5th st ne","city":"Minneapolis","day":"Day 2"}},{"type":"Feature","geometry":{"type":"Point","coordinates":[-93.25631842,44.99881648]},"properties":{"id":"950","X":"-10381245.52","Y":"5621335.242","call_taken":"2015-12-30T00:00:00.000Z","location":"1104 Adams St NE","city":"Minneapolis","day":"Day 2"}},{"type":"Feature","geometry":{"type":"Point","coordinates":[-93.29212952,44.99851227]},"properties":{"id":"494","X":"-10385276.84","Y":"5621205.751","call_taken":"2015-12-30T00:00:00.000Z","location":"1832 dupont Ave n","city":"Minneapolis","day":"Day 2"}},{"type":"Feature","geometry":{"type":"Point","coordinates":[-93.29145813,44.9983902]},"properties":{"id":"1650","X":"-10385118.34","Y":"5621199.787","call_taken":"2015-12-31T00:00:00.000Z","location":"1831 bryant ave n","city":"Minneapolis","day":"Day 3"}},{"type":"Feature","geometry":{"type":"Point","coordinates":[-93.29212952,44.9983902]},"properties":{"id":"475","X":"-10385276.83","Y":"5621195.213","call_taken":"2015-12-30T00:00:00.000Z","location":"1828 Dupont Ave N","city":"Minneapolis","day":"Day 2"}},{"type":"Feature","geometry":{"type":"Point","coordinates":[-93.29212952,44.99827194]},"properties":{"id":"477","X":"-10385276.83","Y":"5621189.944","call_taken":"2015-12-30T00:00:00.000Z","location":"1826 DuPont Ave n","city":"Minneapolis","day":"Day 2"}},{"type":"Feature","geometry":{"type":"Point","coordinates":[-93.31583597,44.99823041]},"properties":{"id":"735","X":"-10387872.54","Y":"5621238.417","call_taken":"2015-12-30T00:00:00.000Z","location":"1830 Vincent Ave n","city":"Minneapolis","day":"Day 2"}},{"type":"Feature","geometry":{"type":"Point","coordinates":[-93.29251215,44.99821298]},"properties":{"id":"485","X":"-10385276.84","Y":"5621200.482","call_taken":"2015-12-30T00:00:00.000Z","location":"1830 dupont ave n","city":"Minneapolis","day":"Day 2"}},{"type":"Feature","geometry":{"type":"Point","coordinates":[-93.26203918,44.99818039]},"properties":{"id":"1025","X":"-10381946.04","Y":"5621180.102","call_taken":"2015-12-31T00:00:00.000Z","location":"329 9th ave ne","city":"Minneapolis","day":"Day 3"}},{"type":"Feature","geometry":{"type":"Point","coordinates":[-93.2624588,44.99813461]},"properties":{"id":"1034","X":"-10381964.39","Y":"5621170.788","call_taken":"2015-12-31T00:00:00.000Z","location":"317 9th ave ne","city":"Minneapolis","day":"Day 3"}},{"type":"Feature","geometry":{"type":"Point","coordinates":[-93.25408173,44.99811935]},"properties":{"id":"860","X":"-10380962.1","Y":"5621155.949","call_taken":"2015-12-30T00:00:00.000Z","location":"742 Madison St NE","city":"Minneapolis","day":"Day 2"}},{"type":"Feature","geometry":{"type":"Point","coordinates":[-93.29521179,44.99803543]},"properties":{"id":"621","X":"-10385617.06","Y":"5621158.951","call_taken":"2015-12-30T00:00:00.000Z","location":"1814 Fremont Ave n","city":"Minneapolis","day":"Day 1"}},{"type":"Feature","geometry":{"type":"Point","coordinates":[-93.23932648,44.9980278]},"properties":{"id":"1473","X":"-10379403.55","Y":"5621140.629","call_taken":"2015-12-31T00:00:00.000Z","location":"737 Buchanan St NE","city":"Minneapolis","day":"Day 3"}},{"type":"Feature","geometry":{"type":"Point","coordinates":[-93.2914505,44.9980278]},"properties":{"id":"1683","X":"-10385118.42","Y":"5621168.223","call_taken":"2015-12-31T00:00:00.000Z","location":"1819 Bryant ave n","city":"Minneapolis","day":"Day 3"}},{"type":"Feature","geometry":{"type":"Point","coordinates":[-93.29212952,44.9980278]},"properties":{"id":"489","X":"-10385276.82","Y":"5621168.868","call_taken":"2015-12-30T00:00:00.000Z","location":"1818 dupont Ave n","city":"Minneapolis","day":"Day 2"}},{"type":"Feature","geometry":{"type":"Point","coordinates":[-93.29251081,44.99798767]},"properties":{"id":"479","X":"-10385276.82","Y":"5621174.137","call_taken":"2015-12-30T00:00:00.000Z","location":"1820 dupont Ave n","city":"Minneapolis","day":"Day 2"}},{"type":"Feature","geometry":{"type":"Point","coordinates":[-93.24487343,44.99798432]},"properties":{"id":"899","X":"-10379970.78","Y":"5621188.643","call_taken":"2015-12-30T00:00:00.000Z","location":"734 polk st ne","city":"Minneapolis","day":"Day 2"}},{"type":"Feature","geometry":{"type":"Point","coordinates":[-93.25026703,44.99791718]},"properties":{"id":"1210","X":"-10380536.2","Y":"5621123.318","call_taken":"2015-12-30T00:00:00.000Z","location":"734 jackson st ne","city":"Minneapolis","day":"Day 2"}},{"type":"Feature","geometry":{"type":"Point","coordinates":[-93.29452515,44.99791336]},"properties":{"id":"306","X":"-10385459.34","Y":"5621158.482","call_taken":"2015-12-30T00:00:00.000Z","location":"1815 Emerson ave n","city":"Minneapolis","day":"Day 1"}},{"type":"Feature","geometry":{"type":"Point","coordinates":[-93.294525,44.997913]},"properties":{"id":"96","X":"0","Y":"0","call_taken":"2015-12-29T00:00:00.000Z","location":"1815 noth emerson","city":"Minneapolis","day":"Day 1"}},{"type":"Feature","geometry":{"type":"Point","coordinates":[-93.30689281,44.99787368]},"properties":{"id":"1530","X":"-10386876.08","Y":"5621182.183","call_taken":"2015-12-30T00:00:00.000Z","location":"1830 Oliver ave n","city":"Minneapolis","day":"Day 2"}},{"type":"Feature","geometry":{"type":"Point","coordinates":[-93.24233875,44.9978482]},"properties":{"id":"1240","X":"-10379675.47","Y":"5621168.222","call_taken":"2015-12-30T00:00:00.000Z","location":"746 fillmore st ne","city":"Minneapolis","day":"Day 2"}},{"type":"Feature","geometry":{"type":"Point","coordinates":[-93.25408173,44.99779129]},"properties":{"id":"890","X":"-10380961.97","Y":"5621117.524","call_taken":"2015-12-30T00:00:00.000Z","location":"728 Madison St NE","city":"Minneapolis","day":"Day 2"}},{"type":"Feature","geometry":{"type":"Point","coordinates":[-93.25808716,44.99771118]},"properties":{"id":"487","X":"-10381399.09","Y":"5621134.165","call_taken":"2015-12-30T00:00:00.000Z","location":"718 6th st ne","city":"Minneapolis","day":"Day 2"}},{"type":"Feature","geometry":{"type":"Point","coordinates":[-93.29521179,44.99760818]},"properties":{"id":"645","X":"-10385617.13","Y":"5621121.909","call_taken":"2015-12-30T00:00:00.000Z","location":"1800 Fremont Ave N","city":"Minneapolis","day":"Day 1"}},{"type":"Feature","geometry":{"type":"Point","coordinates":[-93.23932648,44.99759293]},"properties":{"id":"1480","X":"-10379403.46","Y":"5621097.009","call_taken":"2015-12-31T00:00:00.000Z","location":"721 Buchanan St NE","city":"Minneapolis","day":"Day 3"}},{"type":"Feature","geometry":{"type":"Point","coordinates":[-93.31296539,44.99748611]},"properties":{"id":"1209","X":"-10387587.22","Y":"5621074.846","call_taken":"2015-12-30T00:00:00.000Z","location":"1714 thomas ave n","city":"Minneapolis","day":"Day 2"}},{"type":"Feature","geometry":{"type":"Point","coordinates":[-93.25808716,44.99744034]},"properties":{"id":"497","X":"-10381395.4","Y":"5621127.731","call_taken":"2015-12-30T00:00:00.000Z","location":"712 6th st ne","city":"Minneapolis","day":"Day 2"}},{"type":"Feature","geometry":{"type":"Point","coordinates":[-93.24006653,44.9973793]},"properties":{"id":"1241","X":"-10379391.23","Y":"5621080.676","call_taken":"2015-12-30T00:00:00.000Z","location":"714 buchanan st ne","city":"Minneapolis","day":"Day 2"}},{"type":"Feature","geometry":{"type":"Point","coordinates":[-93.26111086,44.99736607]},"properties":{"id":"794","X":"-10381772.66","Y":"5621095.093","call_taken":"2015-12-30T00:00:00.000Z","location":"812 4th st ne","city":"Minneapolis","day":"Day 2"}},{"type":"Feature","geometry":{"type":"Point","coordinates":[-93.26109007,44.9973359]},"properties":{"id":"761","X":"-10384957.8","Y":"5618638.732","call_taken":"2015-12-30T00:00:00.000Z","location":"808 4th ave ne","city":"Minneapolis","day":"Day 2"}},{"type":"Feature","geometry":{"type":"Point","coordinates":[-93.2990799,44.99727249]},"properties":{"id":"856","X":"-10386037.01","Y":"5620997.452","call_taken":"2015-12-30T00:00:00.000Z","location":"1730 irving ave. n","city":"Minneapolis","day":"Day 2"}},{"type":"Feature","geometry":{"type":"Point","coordinates":[-93.26753005,44.99725007]},"properties":{"id":"796","X":"-10382472.03","Y":"5621100.148","call_taken":"2015-12-30T00:00:00.000Z","location":"110 10th ave ne","city":"Minneapolis","day":"Day 2"}},{"type":"Feature","geometry":{"type":"Point","coordinates":[-93.26705933,44.99724579]},"properties":{"id":"770","X":"-10382446","Y":"5621112.743","call_taken":"2015-12-30T00:00:00.000Z","location":"114 10th ave ne","city":"Minneapolis","day":"Day 2"}},{"type":"Feature","geometry":{"type":"Point","coordinates":[-93.26758169,44.99723196]},"properties":{"id":"792","X":"-10382485.05","Y":"5621093.851","call_taken":"2015-12-30T00:00:00.000Z","location":"108 10th ave ne","city":"Minneapolis","day":"Day 2"}},{"type":"Feature","geometry":{"type":"Point","coordinates":[-93.29980469,44.99716187]},"properties":{"id":"1055","X":"-10386049.23","Y":"5620990.951","call_taken":"2015-12-31T00:00:00.000Z","location":"1727 Irving ave n","city":"Minneapolis","day":"Day 3"}},{"type":"Feature","geometry":{"type":"Point","coordinates":[-93.25153351,44.9970665]},"properties":{"id":"1630","X":"-10380773.92","Y":"5621038.935","call_taken":"2015-12-31T00:00:00.000Z","location":"727 Summer St NE","city":"Minneapolis","day":"Day 3"}},{"type":"Feature","geometry":{"type":"Point","coordinates":[-93.24184656,44.99694496]},"properties":{"id":"1503","X":"-10379641.38","Y":"5621040.457","call_taken":"2015-12-31T00:00:00.000Z","location":"1227 Summer St NE","city":"Minneapolis","day":"Day 3"}},{"type":"Feature","geometry":{"type":"Point","coordinates":[-93.25014062,44.99694496]},"properties":{"id":"1668","X":"-10380504.29","Y":"5621039.519","call_taken":"2015-12-31T00:00:00.000Z","location":"837 summer st ne","city":"Minneapolis","day":"Day 3"}},{"type":"Feature","geometry":{"type":"Point","coordinates":[-93.25400233,44.99685712]},"properties":{"id":"707","X":"-10380959.82","Y":"5621026.017","call_taken":"2015-12-30T00:00:00.000Z","location":"676 summer st ne","city":"Minneapolis","day":"Day 2"}},{"type":"Feature","geometry":{"type":"Point","coordinates":[-93.24070394,44.99685511]},"properties":{"id":"1230","X":"-10379521.72","Y":"5621027.93","call_taken":"2015-12-30T00:00:00.000Z","location":"1310 summer st ne","city":"Minneapolis","day":"Day 2"}},{"type":"Feature","geometry":{"type":"Point","coordinates":[-93.29908752,44.99682999]},"properties":{"id":"992","X":"-10386037.14","Y":"5620971.208","call_taken":"2015-12-30T00:00:00.000Z","location":"1714 Irving Ave N","city":"Minneapolis","day":"Day 2"}},{"type":"Feature","geometry":{"type":"Point","coordinates":[-93.28501806,44.99681018]},"properties":{"id":"1580","X":"-10384440.07","Y":"5621020.807","call_taken":"2015-12-31T00:00:00.000Z","location":"1711 Lyn curve ave n","city":"Minneapolis","day":"Day 3"}},{"type":"Feature","geometry":{"type":"Point","coordinates":[-93.30535126,44.99678802]},"properties":{"id":"1374","X":"-10386736.49","Y":"5620972.312","call_taken":"2015-12-30T00:00:00.000Z","location":"1714 newton ave n","city":"Minneapolis","day":"Day 2"}},{"type":"Feature","geometry":{"type":"Point","coordinates":[-93.29908752,44.99671936]},